latitude,longitude,Country Code,Country,City,IP Address
48.1951,16.3483,AT,Austria,Vienna,89.58.16.139
50.3878,8.07286,DE,Germany,Limburg an der Lahn,141.95.124.216
48.2082,16.3738,AT,Austria,Vienna,37.252.190.222
40.8229,-74.4592,US,United States,Cedar Knolls,45.79.149.203
34.0544,-118.2441,US,United States,Los Angeles,84.54.23.48
48.8323,2.4075,FR,France,Paris,51.159.137.138
50.475,12.365,DE,Germany,Falkenstein,49.12.150.240
