latitude,longitude,Country Code,Country,City,IP Address
39.0438,-77.4874,US,United States,Ashburn,3.91.91.237
51.5074,-0.1196,GB,United Kingdom,London,198.244.253.241
37.5665,126.978,KR,South Korea,Seoul,52.79.171.57
48.5734,7.75211,FR,France,Strasbourg,91.134.22.6
48.2082,16.3738,AT,Austria,Vienna,37.252.190.222
51.4808,0.174675,GB,United Kingdom,Erith,57.128.188.88
39.018,-77.539,US,United States,Ashburn,132.145.202.110
41.0416,-73.9572,US,United States,Orangeburg,89.117.78.187
