latitude,longitude,Country Code,Country,City,IP Address
49.4423,11.0191,DE,Germany,Nuremberg,152.53.22.28
50.1109,8.68213,DE,Germany,Frankfurt am Main,52.58.243.225
39.0438,-77.4874,US,United States,Ashburn,52.0.54.100
25.8119,-80.2318,US,United States,Miami,45.77.164.36
48.5734,7.75211,FR,France,Strasbourg,91.134.22.62
43.6547,-79.3623,CA,Canada,Toronto,143.198.46.130
49.4527,11.0783,DE,Germany,Nuremberg,88.198.36.237
40.0992,-83.1141,US,United States,Dublin,3.132.241.37
