latitude,longitude,Country Code,Country,City,IP Address
48.5734,7.75211,FR,France,Strasbourg,162.19.43.18
39.0438,-77.4874,US,United States,Ashburn,3.91.91.237
50.1109,8.68213,DE,Germany,Frankfurt am Main,52.58.243.225
48.1951,16.3483,AT,Austria,Vienna,89.58.16.139
50.4777,12.3649,DE,Germany,Falkenstein,49.12.150.240
53.3498,-6.26031,IE,Ireland,Dublin,34.244.236.193
49.4527,11.0783,DE,Germany,Nuremberg,88.198.36.237
