latitude,longitude,Country Code,Country,City,IP Address
32.8771,-80.013,US,United States,North Charleston,35.185.91.239
43.6547,-79.3623,CA,Canada,Toronto,159.203.6.120
49.4423,11.0191,DE,Germany,Nuremberg,152.53.22.28
43.6547,-79.3623,CA,Canada,Toronto,159.203.0.182
39.0438,-77.4874,US,United States,Ashburn,54.91.222.127
50.3986,8.07958,DE,Germany,Limburg an der Lahn,141.95.124.216
25.8119,-80.2318,US,United States,Miami,45.77.164.36
40.0992,-83.1141,US,United States,Dublin,3.132.241.37
