latitude,longitude,Country Code,Country,City,IP Address
39.0438,-77.4874,US,United States,Ashburn,52.0.54.100
40.0992,-83.1141,US,United States,Dublin,3.132.241.37
48.5734,7.75211,FR,France,Strasbourg,162.19.43.18
51.5074,-0.1196,GB,United Kingdom,London,198.244.253.241
50.1109,8.68213,DE,Germany,Frankfurt am Main,52.58.243.225
40.8229,-74.4592,US,United States,Cedar Knolls,45.79.149.203
