latitude,longitude,Country Code,Country,City,IP Address
50.3878,8.07286,DE,Germany,Limburg an der Lahn,141.95.124.216
49.4423,11.0191,DE,Germany,Nuremberg,152.53.22.28
48.2906,16.3441,AT,Austria,Klosterneuburg,185.119.118.68
48.1951,16.3483,AT,Austria,Vienna,89.58.16.139
37.5665,126.978,KR,South Korea,Seoul,52.79.171.57
40.8229,-74.4592,US,United States,Cedar Knolls,45.79.149.203
