latitude,longitude,Country Code,Country,City,IP Address
49.4423,11.0191,DE,Germany,Nuremberg,152.53.22.28
39.0438,-77.4874,US,United States,Ashburn,3.91.91.237
51.5074,-0.1196,GB,United Kingdom,London,198.244.253.60
34.0544,-118.2441,US,United States,Los Angeles,84.54.23.48
48.2082,16.3738,AT,Austria,Vienna,37.252.190.222
50.475,12.365,DE,Germany,Falkenstein,49.12.150.240
