latitude,longitude,Country Code,Country,City,IP Address
39.0438,-77.4874,US,United States,Ashburn,52.0.54.100
50.3878,8.07286,DE,Germany,Limburg an der Lahn,141.95.124.216
52.352,4.9392,NL,The Netherlands,Amsterdam,84.32.186.15
53.3498,-6.26031,IE,Ireland,Dublin,34.244.236.193
50.7012,3.21501,FR,France,Wattrelos,162.19.37.247
39.0438,-77.4874,US,United States,Ashburn,3.91.91.237
40.8229,-74.4592,US,United States,Cedar Knolls,45.79.149.203
39.0438,-77.4874,US,United States,Ashburn,54.91.222.127
