latitude,longitude,Country Code,Country,City,IP Address
39.018,-77.539,US,United States,Ashburn,150.136.127.40
39.0438,-77.4874,US,United States,Ashburn,54.196.32.74
49.4423,11.0191,DE,Germany,Nuremberg,152.53.22.28
38.9071,-77.0368,US,United States,Washington,34.86.160.44
52.352,4.9392,NL,The Netherlands,Amsterdam,84.32.186.15
48.1951,16.3483,AT,Austria,Vienna,89.58.16.139
51.5123,-0.0909,GB,United Kingdom,London,67.209.52.73
25.8119,-80.2318,US,United States,Miami,45.77.164.36
