latitude,longitude,Country Code,Country,City,IP Address
48.1951,16.3483,AT,Austria,Vienna,89.58.16.139
39.0438,-77.4874,US,United States,Ashburn,44.197.172.154
43.6547,-79.3623,CA,Canada,Toronto,159.203.0.182
1.43508,103.804,SG,Singapore,Singapore,72.46.87.185
48.8323,2.4075,FR,France,Paris,51.159.137.138
40.8229,-74.4592,US,United States,Cedar Knolls,45.79.149.203
53.3498,-6.26031,IE,Ireland,Dublin,34.244.236.193
48.2906,16.3441,AT,Austria,Klosterneuburg,185.119.118.68
