latitude,longitude,Country Code,Country,City,IP Address
48.1951,16.3483,AT,Austria,Vienna,89.58.16.139
49.4423,11.0191,DE,Germany,Nuremberg,152.53.22.28
50.3986,8.07958,DE,Germany,Limburg an der Lahn,141.95.124.216
51.4808,0.174675,GB,United Kingdom,Erith,57.128.188.88
1.43508,103.804,SG,Singapore,Singapore,72.46.87.185
39.0438,-77.4874,US,United States,Ashburn,54.196.32.74
40.8229,-74.4592,US,United States,Cedar Knolls,45.79.149.203
39.018,-77.539,US,United States,Ashburn,132.145.202.110
