latitude,longitude,Country Code,Country,City,IP Address
50.3986,8.07958,DE,Germany,Limburg an der Lahn,141.95.124.216
39.018,-77.539,US,United States,Ashburn,150.136.127.40
48.5734,7.75211,FR,France,Strasbourg,91.134.22.62
37.5665,126.978,KR,South Korea,Seoul,52.79.171.57
48.8323,2.4075,FR,France,Paris,51.159.137.138
51.5074,-0.1196,GB,United Kingdom,London,198.244.253.243
49.4423,11.0191,DE,Germany,Nuremberg,152.53.22.28
