latitude,longitude,Country Code,Country,City,IP Address
39.0438,-77.4874,US,United States,Ashburn,3.91.91.237
50.7012,3.21501,FR,France,Wattrelos,162.19.37.247
52.352,4.9392,NL,The Netherlands,Amsterdam,84.32.186.15
53.3498,-6.26031,IE,Ireland,Dublin,34.244.236.193
49.4521,11.0767,DE,Germany,Nuremberg,88.198.36.237
34.0544,-118.2441,US,United States,Los Angeles,84.54.23.48
50.475,12.365,DE,Germany,Falkenstein,49.12.150.240
