latitude,longitude,Country Code,Country,City,IP Address
48.2906,16.3441,AT,Austria,Klosterneuburg,185.119.118.68
39.0438,-77.4874,US,United States,Ashburn,52.0.54.100
51.5123,-0.0909,GB,United Kingdom,London,67.209.52.73
50.475,12.365,DE,Germany,Falkenstein,49.12.150.240
40.8229,-74.4592,US,United States,Cedar Knolls,45.79.149.203
49.4423,11.0191,DE,Germany,Nuremberg,152.53.22.28
