latitude,longitude,Country Code,Country,City,IP Address
48.5734,7.75211,FR,France,Strasbourg,91.134.22.6
43.6547,-79.3623,CA,Canada,Toronto,159.203.6.120
39.0438,-77.4874,US,United States,Ashburn,54.196.32.74
50.7012,3.21501,FR,France,Wattrelos,162.19.85.200
40.0992,-83.1141,US,United States,Dublin,3.132.241.37
39.018,-77.539,US,United States,Ashburn,129.213.156.73
50.3986,8.07958,DE,Germany,Limburg an der Lahn,141.95.124.216
32.8771,-80.013,US,United States,North Charleston,35.185.91.239
