latitude,longitude,Country Code,Country,City,IP Address
53.3498,-6.26031,IE,Ireland,Dublin,34.244.236.193
49.4521,11.0767,DE,Germany,Nuremberg,88.198.36.237
48.2082,16.3738,AT,Austria,Vienna,37.252.190.222
48.1951,16.3483,AT,Austria,Vienna,89.58.16.139
39.0438,-77.4874,US,United States,Ashburn,54.91.222.127
40.8229,-74.4592,US,United States,Cedar Knolls,45.79.149.203
