latitude,longitude,Country Code,Country,City,IP Address
48.1951,16.3483,AT,Austria,Vienna,89.58.16.139
39.0438,-77.4874,US,United States,Ashburn,3.91.91.237
53.3498,-6.26031,IE,Ireland,Dublin,34.244.236.193
48.2906,16.3441,AT,Austria,Klosterneuburg,185.119.118.68
50.475,12.365,DE,Germany,Falkenstein,49.12.150.240
