latitude,longitude,Country Code,Country,City,IP Address
39.018,-77.539,US,United States,Ashburn,150.136.127.40
43.6547,-79.3623,CA,Canada,Toronto,159.203.6.120
50.1109,8.68213,DE,Germany,Frankfurt am Main,52.58.243.225
49.4423,11.0191,DE,Germany,Nuremberg,152.53.22.28
51.4808,0.174675,GB,United Kingdom,Erith,57.128.188.88
43.6547,-79.3623,CA,Canada,Toronto,143.198.46.130
40.0992,-83.1141,US,United States,Dublin,3.132.241.37
