latitude,longitude,Country Code,Country,City,IP Address
37.5665,126.978,KR,South Korea,Seoul,52.79.171.57
40.8229,-74.4592,US,United States,Cedar Knolls,45.79.149.203
51.5123,-0.0909,GB,United Kingdom,London,67.209.52.73
48.8323,2.4075,FR,France,Paris,51.159.137.138
48.2082,16.3738,AT,Austria,Vienna,37.252.190.222
