latitude,longitude,Country Code,Country,City,IP Address
48.1951,16.3483,AT,Austria,Vienna,89.58.16.139
53.3498,-6.26031,IE,Ireland,Dublin,34.244.236.193
48.8323,2.4075,FR,France,Paris,51.159.137.138
50.1109,8.68213,DE,Germany,Frankfurt am Main,52.58.243.225
50.475,12.365,DE,Germany,Falkenstein,49.12.150.240
48.2906,16.3441,AT,Austria,Klosterneuburg,185.119.118.68
