latitude,longitude,Country Code,Country,City,IP Address
39.018,-77.539,US,United States,Ashburn,132.145.202.110
43.6547,-79.3623,CA,Canada,Toronto,143.198.46.130
48.2906,16.3441,AT,Austria,Klosterneuburg,185.119.118.68
50.7012,3.21501,FR,France,Wattrelos,162.19.37.247
53.3498,-6.26031,IE,Ireland,Dublin,34.244.236.193
51.5074,-0.1196,GB,United Kingdom,London,198.244.253.243
38.9071,-77.0368,US,United States,Washington,34.86.160.44
