latitude,longitude,Country Code,Country,City,IP Address
48.2906,16.3441,AT,Austria,Klosterneuburg,185.119.118.68
39.0438,-77.4874,US,United States,Ashburn,52.0.54.100
53.3498,-6.26031,IE,Ireland,Dublin,34.244.236.193
49.4521,11.0767,DE,Germany,Nuremberg,88.198.36.237
40.8229,-74.4592,US,United States,Cedar Knolls,45.79.149.203
