latitude,longitude,Country Code,Country,City,IP Address
39.018,-77.539,US,United States,Ashburn,150.136.127.40
43.6547,-79.3623,CA,Canada,Toronto,143.198.46.130
43.6547,-79.3623,CA,Canada,Toronto,159.203.6.120
43.6547,-79.3623,CA,Canada,Toronto,159.203.0.182
50.1109,8.68213,DE,Germany,Frankfurt am Main,52.58.243.225
51.4808,0.174675,GB,United Kingdom,Erith,57.128.188.88
39.0438,-77.4874,US,United States,Ashburn,3.91.91.237
39.018,-77.539,US,United States,Ashburn,129.213.156.73
48.5734,7.75211,FR,France,Strasbourg,91.134.22.62
