latitude,longitude,Country Code,Country,City,IP Address
43.6547,-79.3623,CA,Canada,Toronto,143.198.46.130
51.5074,-0.1196,GB,United Kingdom,London,198.244.253.241
43.6547,-79.3623,CA,Canada,Toronto,159.203.6.120
50.7012,3.21501,FR,France,Wattrelos,162.19.37.247
48.5734,7.75211,FR,France,Strasbourg,91.134.22.6
1.43508,103.804,SG,Singapore,Singapore,72.46.87.185
51.5074,-0.1196,GB,United Kingdom,London,198.244.253.60
37.5665,126.978,KR,South Korea,Seoul,52.79.171.57
