latitude,longitude,Country Code,Country,City,IP Address
51.4808,0.174675,GB,United Kingdom,Erith,57.128.188.88
39.0438,-77.4874,US,United States,Ashburn,54.196.32.74
48.2906,16.3441,AT,Austria,Klosterneuburg,185.119.118.68
49.4423,11.0191,DE,Germany,Nuremberg,152.53.22.28
50.7012,3.21501,FR,France,Wattrelos,162.19.85.200
37.3931,-121.962,US,United States,Santa Clara,64.227.110.67
43.6547,-79.3623,CA,Canada,Toronto,159.203.6.120
39.018,-77.539,US,United States,Ashburn,129.213.156.73
