latitude,longitude,Country Code,Country,City,IP Address
51.5074,-0.1196,GB,United Kingdom,London,198.244.253.241
32.8771,-80.013,US,United States,North Charleston,35.185.91.239
39.0438,-77.4874,US,United States,Ashburn,3.91.91.237
49.4423,11.0191,DE,Germany,Nuremberg,152.53.22.28
25.8119,-80.2318,US,United States,Miami,45.77.164.36
1.43508,103.804,SG,Singapore,Singapore,72.46.87.185
39.0438,-77.4874,US,United States,Ashburn,54.196.32.74
