latitude,longitude,Country Code,Country,City,IP Address
49.4423,11.0191,DE,Germany,Nuremberg,152.53.22.28
52.352,4.9392,NL,The Netherlands,Amsterdam,84.32.186.15
48.8323,2.4075,FR,France,Paris,51.159.137.138
34.0544,-118.2441,US,United States,Los Angeles,84.54.23.48
48.1951,16.3483,AT,Austria,Vienna,89.58.16.139
48.2906,16.3441,AT,Austria,Klosterneuburg,185.119.118.68
