latitude,longitude,Country Code,Country,City,IP Address
39.018,-77.539,US,United States,Ashburn,150.136.127.40
49.4423,11.0191,DE,Germany,Nuremberg,152.53.22.28
43.6547,-79.3623,CA,Canada,Toronto,159.203.0.182
51.5074,-0.1196,GB,United Kingdom,London,198.244.253.243
40.0992,-83.1141,US,United States,Dublin,3.132.241.37
48.2906,16.3441,AT,Austria,Klosterneuburg,185.119.118.68
39.0438,-77.4874,US,United States,Ashburn,54.91.222.127
50.1109,8.68213,DE,Germany,Frankfurt am Main,52.58.243.225
