latitude,longitude,Country Code,Country,City,IP Address
49.4423,11.0191,DE,Germany,Nuremberg,152.53.22.28
39.0438,-77.4874,US,United States,Ashburn,52.0.54.100
49.4521,11.0767,DE,Germany,Nuremberg,88.198.36.237
40.8229,-74.4592,US,United States,Cedar Knolls,45.79.149.203
51.5123,-0.0909,GB,United Kingdom,London,67.209.52.73
50.3878,8.07286,DE,Germany,Limburg an der Lahn,141.95.124.216
