latitude,longitude,Country Code,Country,City,IP Address
43.6547,-79.3623,CA,Canada,Toronto,159.203.6.120
25.8119,-80.2318,US,United States,Miami,45.77.164.36
50.3986,8.07958,DE,Germany,Limburg an der Lahn,141.95.124.216
43.6547,-79.3623,CA,Canada,Toronto,159.203.0.182
48.2906,16.3441,AT,Austria,Klosterneuburg,185.119.118.68
51.5123,-0.0909,GB,United Kingdom,London,67.209.52.73
40.0992,-83.1141,US,United States,Dublin,3.132.241.37
39.0438,-77.4874,US,United States,Ashburn,3.239.38.16
