latitude,longitude,Country Code,Country,City,IP Address
51.5123,-0.0909,GB,United Kingdom,London,67.209.52.73
43.6547,-79.3623,CA,Canada,Toronto,159.203.0.182
48.1951,16.3483,AT,Austria,Vienna,89.58.16.139
51.5074,-0.1196,GB,United Kingdom,London,198.244.253.241
39.0438,-77.4874,US,United States,Ashburn,3.239.38.16
37.3931,-121.962,US,United States,Santa Clara,64.227.110.67
