latitude,longitude,Country Code,Country,City,IP Address
48.2906,16.3441,AT,Austria,Klosterneuburg,185.119.118.68
43.6547,-79.3623,CA,Canada,Toronto,143.198.46.130
51.5074,-0.1196,GB,United Kingdom,London,198.244.253.243
25.8119,-80.2318,US,United States,Miami,45.77.164.36
51.5074,-0.1196,GB,United Kingdom,London,198.244.253.241
39.0438,-77.4874,US,United States,Ashburn,3.91.91.237
43.6547,-79.3623,CA,Canada,Toronto,159.203.0.182
49.4527,11.0783,DE,Germany,Nuremberg,88.198.36.237
