latitude,longitude,Country Code,Country,City,IP Address
40.0992,-83.1141,US,United States,Dublin,3.132.241.37
43.6547,-79.3623,CA,Canada,Toronto,159.203.0.182
39.018,-77.539,US,United States,Ashburn,150.136.127.40
48.1951,16.3483,AT,Austria,Vienna,89.58.16.139
50.1109,8.68213,DE,Germany,Frankfurt am Main,52.58.243.225
25.8119,-80.2318,US,United States,Miami,45.77.164.36
48.5734,7.75211,FR,France,Strasbourg,91.134.22.6
38.9071,-77.0368,US,United States,Washington,34.86.160.44
39.0438,-77.4874,US,United States,Ashburn,3.91.91.237
