latitude,longitude,Country Code,Country,City,IP Address
51.5123,-0.0909,GB,United Kingdom,London,67.209.52.73
37.5665,126.978,KR,South Korea,Seoul,52.79.171.57
50.3878,8.07286,DE,Germany,Limburg an der Lahn,141.95.124.216
39.0438,-77.4874,US,United States,Ashburn,54.91.222.127
49.4423,11.0191,DE,Germany,Nuremberg,152.53.22.28
48.1951,16.3483,AT,Austria,Vienna,89.58.16.139
48.8323,2.4075,FR,France,Paris,51.159.137.138
53.3498,-6.26031,IE,Ireland,Dublin,34.244.236.193
39.0438,-77.4874,US,United States,Ashburn,52.0.54.100
