latitude,longitude,Country Code,Country,City,IP Address
25.8119,-80.2318,US,United States,Miami,45.77.164.36
50.7012,3.21501,FR,France,Wattrelos,162.19.85.200
39.0438,-77.4874,US,United States,Ashburn,54.196.32.74
43.6547,-79.3623,CA,Canada,Toronto,159.203.0.182
37.3931,-121.962,US,United States,Santa Clara,64.227.110.67
38.9071,-77.0368,US,United States,Washington,34.86.160.44
