latitude,longitude,Country Code,Country,City,IP Address
48.5734,7.75211,FR,France,Strasbourg,91.134.22.62
50.7012,3.21501,FR,France,Wattrelos,141.94.3.10
40.0992,-83.1141,US,United States,Dublin,3.132.241.37
39.0438,-77.4874,US,United States,Ashburn,54.196.32.74
39.0438,-77.4874,US,United States,Ashburn,3.91.91.237
43.6547,-79.3623,CA,Canada,Toronto,143.198.46.130
51.4808,0.174675,GB,United Kingdom,Erith,57.128.188.88
53.3498,-6.26031,IE,Ireland,Dublin,34.244.236.193
51.5123,-0.0909,GB,United Kingdom,London,67.209.52.73
