latitude,longitude,Country Code,Country,City,IP Address
48.1951,16.3483,AT,Austria,Vienna,89.58.16.139
50.1109,8.68213,DE,Germany,Frankfurt am Main,52.58.243.225
37.5665,126.978,KR,South Korea,Seoul,52.79.171.57
32.8771,-80.013,US,United States,North Charleston,35.185.91.239
39.018,-77.539,US,United States,Ashburn,132.145.202.110
