latitude,longitude,Country Code,Country,City,IP Address
39.0438,-77.4874,US,United States,Ashburn,3.91.91.237
39.0438,-77.4874,US,United States,Ashburn,54.196.32.74
50.1109,8.68213,DE,Germany,Frankfurt am Main,52.58.243.225
48.2082,16.3738,AT,Austria,Vienna,37.252.190.222
48.5734,7.75211,FR,France,Strasbourg,162.19.43.18
37.3931,-121.962,US,United States,Santa Clara,64.227.110.67
49.4527,11.0783,DE,Germany,Nuremberg,88.198.36.237
