latitude,longitude,Country Code,Country,City,IP Address
39.0438,-77.4874,US,United States,Ashburn,3.91.91.237
43.6547,-79.3623,CA,Canada,Toronto,159.203.0.182
48.2082,16.3738,AT,Austria,Vienna,37.252.190.222
43.6547,-79.3623,CA,Canada,Toronto,159.203.6.120
51.4808,0.174675,GB,United Kingdom,Erith,57.128.188.88
37.3931,-121.962,US,United States,Santa Clara,64.227.110.67
