latitude,longitude,Country Code,Country,City,IP Address
39.0438,-77.4874,US,United States,Ashburn,54.196.32.74
43.6547,-79.3623,CA,Canada,Toronto,159.203.6.120
50.7012,3.21501,FR,France,Wattrelos,141.94.3.10
37.3931,-121.962,US,United States,Santa Clara,64.227.110.67
51.5074,-0.1196,GB,United Kingdom,London,198.244.253.241
51.5123,-0.0909,GB,United Kingdom,London,67.209.52.73
