latitude,longitude,Country Code,Country,City,IP Address
43.6547,-79.3623,CA,Canada,Toronto,143.198.46.130
32.8771,-80.013,US,United States,North Charleston,35.185.91.239
38.9071,-77.0368,US,United States,Washington,34.86.160.44
48.8323,2.4075,FR,France,Paris,51.159.137.138
43.6547,-79.3623,CA,Canada,Toronto,159.203.0.182
49.4527,11.0783,DE,Germany,Nuremberg,88.198.36.237
