latitude,longitude,Country Code,Country,City,IP Address
37.5665,126.978,KR,South Korea,Seoul,52.79.171.57
39.0438,-77.4874,US,United States,Ashburn,54.196.32.74
51.5074,-0.1196,GB,United Kingdom,London,198.244.253.241
39.0438,-77.4874,US,United States,Ashburn,3.91.91.237
43.6547,-79.3623,CA,Canada,Toronto,159.203.6.120
38.9071,-77.0368,US,United States,Washington,34.86.160.44
