latitude,longitude,Country Code,Country,City,IP Address
-23.5335,-46.6359,BR,Brazil,São Paulo,177.54.147.193
50.3986,8.07958,DE,Germany,Limburg an der Lahn,141.95.124.216
37.5665,126.978,KR,South Korea,Seoul,52.79.171.57
39.018,-77.539,US,United States,Ashburn,132.145.202.110
49.4527,11.0783,DE,Germany,Nuremberg,88.198.36.237
51.1878,6.8607,DE,Germany,Düsseldorf,84.54.23.48
25.8119,-80.2318,US,United States,Miami,45.77.164.36
