latitude,longitude,Country Code,Country,City,IP Address
43.6547,-79.3623,CA,Canada,Toronto,159.203.6.120
50.1109,8.68213,DE,Germany,Frankfurt am Main,52.58.243.225
39.0438,-77.4874,US,United States,Ashburn,44.197.172.154
39.0438,-77.4874,US,United States,Ashburn,3.91.91.237
50.7012,3.21501,FR,France,Wattrelos,162.19.37.247
48.5734,7.75211,FR,France,Strasbourg,91.134.22.62
40.8229,-74.4592,US,United States,Cedar Knolls,45.79.149.203
1.43508,103.804,SG,Singapore,Singapore,72.46.87.167
