latitude,longitude,Country Code,Country,City,IP Address
50.3986,8.07958,DE,Germany,Limburg an der Lahn,141.95.124.216
40.8229,-74.4592,US,United States,Cedar Knolls,45.79.149.203
37.5665,126.978,KR,South Korea,Seoul,52.79.171.57
51.5123,-0.0909,GB,United Kingdom,London,67.209.52.73
50.7012,3.21501,FR,France,Wattrelos,162.19.37.247
