latitude,longitude,Country Code,Country,City,IP Address
48.1951,16.3483,AT,Austria,Vienna,89.58.16.139
39.0438,-77.4874,US,United States,Ashburn,3.91.91.237
43.6547,-79.3623,CA,Canada,Toronto,143.198.46.130
49.4527,11.0783,DE,Germany,Nuremberg,88.198.36.237
40.0992,-83.1141,US,United States,Dublin,3.132.241.37
52.352,4.9392,NL,The Netherlands,Amsterdam,84.32.186.15
