latitude,longitude,Country Code,Country,City,IP Address
39.018,-77.539,US,United States,Ashburn,150.136.127.40
25.8119,-80.2318,US,United States,Miami,45.77.164.36
-23.5335,-46.6359,BR,Brazil,São Paulo,177.54.147.193
51.1878,6.8607,DE,Germany,Düsseldorf,84.54.23.48
48.2906,16.3441,AT,Austria,Klosterneuburg,185.119.118.68
48.5734,7.75211,FR,France,Strasbourg,91.134.22.62
50.1109,8.68213,DE,Germany,Frankfurt am Main,52.58.243.225
