latitude,longitude,Country Code,Country,City,IP Address
25.8119,-80.2318,US,United States,Miami,45.77.164.36
49.4423,11.0191,DE,Germany,Nuremberg,152.53.22.28
39.0438,-77.4874,US,United States,Ashburn,52.0.54.100
51.5074,-0.1196,GB,United Kingdom,London,198.244.253.241
48.2082,16.3738,AT,Austria,Vienna,37.252.190.222
43.6547,-79.3623,CA,Canada,Toronto,159.203.0.182
51.5074,-0.1196,GB,United Kingdom,London,198.244.253.243
50.1109,8.68213,DE,Germany,Frankfurt am Main,52.58.243.225
