latitude,longitude,Country Code,Country,City,IP Address
49.4423,11.0191,DE,Germany,Nuremberg,152.53.22.28
50.7012,3.21501,FR,France,Wattrelos,162.19.37.247
48.8323,2.4075,FR,France,Paris,51.159.137.138
40.8229,-74.4592,US,United States,Cedar Knolls,45.79.149.203
39.0438,-77.4874,US,United States,Ashburn,3.91.91.237
