latitude,longitude,Country Code,Country,City,IP Address
48.5734,7.75211,FR,France,Strasbourg,91.134.22.6
1.43508,103.804,SG,Singapore,Singapore,72.46.87.167
39.018,-77.539,US,United States,Ashburn,150.136.127.40
40.8229,-74.4592,US,United States,Cedar Knolls,45.79.149.203
51.5074,-0.1196,GB,United Kingdom,London,198.244.253.60
