latitude,longitude,Country Code,Country,City,IP Address
37.5665,126.978,KR,South Korea,Seoul,52.79.171.57
50.7012,3.21501,FR,France,Wattrelos,162.19.85.200
39.0438,-77.4874,US,United States,Ashburn,3.91.91.237
50.1109,8.68213,DE,Germany,Frankfurt am Main,52.58.243.225
48.5734,7.75211,FR,France,Strasbourg,91.134.22.6
53.3498,-6.26031,IE,Ireland,Dublin,34.244.236.193
39.018,-77.539,US,United States,Ashburn,132.145.202.110
