latitude,longitude,Country Code,Country,City,IP Address
39.018,-77.539,US,United States,Ashburn,150.136.127.40
48.1951,16.3483,AT,Austria,Vienna,89.58.16.139
48.5734,7.75211,FR,France,Strasbourg,91.134.22.62
53.3498,-6.26031,IE,Ireland,Dublin,34.244.236.193
51.5074,-0.1196,GB,United Kingdom,London,198.244.253.243
51.5074,-0.1196,GB,United Kingdom,London,198.244.253.241
48.2082,16.3738,AT,Austria,Vienna,37.252.190.222
40.8229,-74.4592,US,United States,Cedar Knolls,45.79.149.203
