latitude,longitude,Country Code,Country,City,IP Address
43.6547,-79.3623,CA,Canada,Toronto,143.198.46.130
50.1109,8.68213,DE,Germany,Frankfurt am Main,52.58.243.225
48.5734,7.75211,FR,France,Strasbourg,91.134.22.62
48.5734,7.75211,FR,France,Strasbourg,162.19.43.18
49.4527,11.0783,DE,Germany,Nuremberg,88.198.36.237
50.7012,3.21501,FR,France,Wattrelos,162.19.37.247
