latitude,longitude,Country Code,Country,City,IP Address
51.5074,-0.1196,GB,United Kingdom,London,198.244.253.241
39.0438,-77.4874,US,United States,Ashburn,54.196.32.74
39.0438,-77.4874,US,United States,Ashburn,3.91.91.237
32.8771,-80.013,US,United States,North Charleston,35.185.91.239
43.6547,-79.3623,CA,Canada,Toronto,159.203.6.120
48.5734,7.75211,FR,France,Strasbourg,91.134.22.62
39.018,-77.539,US,United States,Ashburn,129.213.156.73
