latitude,longitude,Country Code,Country,City,IP Address
51.4808,0.174675,GB,United Kingdom,Erith,57.128.188.88
51.5074,-0.1196,GB,United Kingdom,London,198.244.253.60
50.3986,8.07958,DE,Germany,Limburg an der Lahn,141.95.124.216
48.2082,16.3738,AT,Austria,Vienna,37.252.190.222
51.5123,-0.0909,GB,United Kingdom,London,67.209.52.73
50.1109,8.68213,DE,Germany,Frankfurt am Main,52.58.243.225
