latitude,longitude,Country Code,Country,City,IP Address
39.0438,-77.4874,US,United States,Ashburn,54.196.32.74
48.8323,2.4075,FR,France,Paris,51.159.137.138
48.5734,7.75211,FR,France,Strasbourg,91.134.22.6
51.5074,-0.1196,GB,United Kingdom,London,198.244.253.241
1.43508,103.804,SG,Singapore,Singapore,72.46.87.167
