latitude,longitude,Country Code,Country,City,IP Address
50.1109,8.68213,DE,Germany,Frankfurt am Main,52.58.243.225
39.018,-77.539,US,United States,Ashburn,150.136.127.40
48.1951,16.3483,AT,Austria,Vienna,89.58.16.139
39.0438,-77.4874,US,United States,Ashburn,3.239.38.16
32.8771,-80.013,US,United States,North Charleston,35.185.91.239
43.6547,-79.3623,CA,Canada,Toronto,159.203.6.120
50.7012,3.21501,FR,France,Wattrelos,162.19.37.247
