latitude,longitude,Country Code,Country,City,IP Address
43.6547,-79.3623,CA,Canada,Toronto,159.203.6.120
39.018,-77.539,US,United States,Ashburn,150.136.127.40
39.0438,-77.4874,US,United States,Ashburn,3.91.91.237
38.9071,-77.0368,US,United States,Washington,34.86.160.44
48.8323,2.4075,FR,France,Paris,51.159.137.138
51.4808,0.174675,GB,United Kingdom,Erith,57.128.188.88
52.352,4.9392,NL,The Netherlands,Amsterdam,84.32.186.15
