latitude,longitude,Country Code,Country,City,IP Address
48.2906,16.3441,AT,Austria,Klosterneuburg,185.119.118.68
1.43508,103.804,SG,Singapore,Singapore,72.46.87.167
37.3931,-121.962,US,United States,Santa Clara,64.227.110.67
48.5734,7.75211,FR,France,Strasbourg,162.19.43.18
48.1951,16.3483,AT,Austria,Vienna,89.58.16.139
