latitude,longitude,Country Code,Country,City,IP Address
48.2082,16.3738,AT,Austria,Vienna,37.252.190.222
53.3498,-6.26031,IE,Ireland,Dublin,34.244.236.193
50.475,12.365,DE,Germany,Falkenstein,49.12.150.240
39.0438,-77.4874,US,United States,Ashburn,3.91.91.237
34.0544,-118.2441,US,United States,Los Angeles,84.54.23.48
51.5074,-0.1196,GB,United Kingdom,London,198.244.253.60
49.4521,11.0767,DE,Germany,Nuremberg,88.198.36.237
37.5665,126.978,KR,South Korea,Seoul,52.79.171.57
39.0438,-77.4874,US,United States,Ashburn,52.0.54.100
