latitude,longitude,Country Code,Country,City,IP Address
50.1109,8.68213,DE,Germany,Frankfurt am Main,52.58.243.225
39.0438,-77.4874,US,United States,Ashburn,3.91.91.237
25.8119,-80.2318,US,United States,Miami,45.77.164.36
48.1951,16.3483,AT,Austria,Vienna,89.58.16.139
40.0992,-83.1141,US,United States,Dublin,3.132.241.37
48.5734,7.75211,FR,France,Strasbourg,91.134.22.62
40.8229,-74.4592,US,United States,Cedar Knolls,45.79.149.203
50.7012,3.21501,FR,France,Wattrelos,162.19.37.247
