latitude,longitude,Country Code,Country,City,IP Address
50.3986,8.07958,DE,Germany,Limburg an der Lahn,141.95.124.216
39.018,-77.539,US,United States,Ashburn,150.136.127.40
51.5074,-0.1196,GB,United Kingdom,London,198.244.253.243
50.4777,12.3649,DE,Germany,Falkenstein,49.12.150.240
50.1109,8.68213,DE,Germany,Frankfurt am Main,52.58.243.225
