latitude,longitude,Country Code,Country,City,IP Address
40.0992,-83.1141,US,United States,Dublin,3.132.241.37
43.6547,-79.3623,CA,Canada,Toronto,159.203.0.182
51.5123,-0.0909,GB,United Kingdom,London,67.209.52.73
52.352,4.9392,NL,The Netherlands,Amsterdam,84.32.186.15
32.8771,-80.013,US,United States,North Charleston,35.185.91.239
37.5665,126.978,KR,South Korea,Seoul,52.79.171.57
