latitude,longitude,Country Code,Country,City,IP Address
51.5074,-0.1196,GB,United Kingdom,London,198.244.253.241
25.8119,-80.2318,US,United States,Miami,45.77.164.36
48.5734,7.75211,FR,France,Strasbourg,162.19.43.18
43.6547,-79.3623,CA,Canada,Toronto,159.203.0.182
48.5734,7.75211,FR,France,Strasbourg,91.134.22.62
39.018,-77.539,US,United States,Ashburn,150.136.127.40
38.9071,-77.0368,US,United States,Washington,34.86.160.44
39.0438,-77.4874,US,United States,Ashburn,54.91.222.127
40.0992,-83.1141,US,United States,Dublin,3.132.241.37
