latitude,longitude,Country Code,Country,City,IP Address
48.5734,7.75211,FR,France,Strasbourg,91.134.22.62
49.4423,11.0191,DE,Germany,Nuremberg,152.53.22.28
52.352,4.9392,NL,The Netherlands,Amsterdam,84.32.186.15
51.5074,-0.1196,GB,United Kingdom,London,198.244.253.241
48.2906,16.3441,AT,Austria,Klosterneuburg,185.119.118.68
50.3986,8.07958,DE,Germany,Limburg an der Lahn,141.95.124.216
