latitude,longitude,Country Code,Country,City,IP Address
48.5734,7.75211,FR,France,Strasbourg,91.134.22.62
48.1951,16.3483,AT,Austria,Vienna,89.58.16.139
49.4423,11.0191,DE,Germany,Nuremberg,152.53.22.28
43.6547,-79.3623,CA,Canada,Toronto,143.198.46.130
50.7012,3.21501,FR,France,Wattrelos,162.19.37.247
48.2906,16.3441,AT,Austria,Klosterneuburg,185.119.118.68
