latitude,longitude,Country Code,Country,City,IP Address
39.0438,-77.4874,US,United States,Ashburn,52.0.54.100
40.8229,-74.4592,US,United States,Cedar Knolls,45.79.149.203
50.3878,8.07286,DE,Germany,Limburg an der Lahn,141.95.124.216
49.4521,11.0767,DE,Germany,Nuremberg,88.198.36.237
53.3498,-6.26031,IE,Ireland,Dublin,34.244.236.193
37.5665,126.978,KR,South Korea,Seoul,52.79.171.57
50.475,12.365,DE,Germany,Falkenstein,49.12.150.240
