latitude,longitude,Country Code,Country,City,IP Address
25.8119,-80.2318,US,United States,Miami,45.77.164.36
1.43508,103.804,SG,Singapore,Singapore,72.46.87.185
50.7012,3.21501,FR,France,Wattrelos,141.94.3.10
50.1109,8.68213,DE,Germany,Frankfurt am Main,52.58.243.225
48.2082,16.3738,AT,Austria,Vienna,37.252.190.222
51.5074,-0.1196,GB,United Kingdom,London,198.244.253.241
50.7012,3.21501,FR,France,Wattrelos,162.19.37.247
37.3931,-121.962,US,United States,Santa Clara,64.227.110.67
