latitude,longitude,Country Code,Country,City,IP Address
50.7012,3.21501,FR,France,Wattrelos,162.19.85.200
43.6547,-79.3623,CA,Canada,Toronto,159.203.0.182
49.4423,11.0191,DE,Germany,Nuremberg,152.53.22.28
51.5123,-0.0909,GB,United Kingdom,London,67.209.52.73
48.5734,7.75211,FR,France,Strasbourg,91.134.22.62
53.3498,-6.26031,IE,Ireland,Dublin,34.244.236.193
50.4777,12.3649,DE,Germany,Falkenstein,49.12.150.240
