latitude,longitude,Country Code,Country,City,IP Address
51.4808,0.174675,GB,United Kingdom,Erith,57.128.188.88
43.6547,-79.3623,CA,Canada,Toronto,159.203.6.120
50.7012,3.21501,FR,France,Wattrelos,141.94.3.10
37.5665,126.978,KR,South Korea,Seoul,52.79.171.57
49.4423,11.0191,DE,Germany,Nuremberg,152.53.22.28
50.3986,8.07958,DE,Germany,Limburg an der Lahn,141.95.124.216
39.0438,-77.4874,US,United States,Ashburn,3.91.91.237
1.43508,103.804,SG,Singapore,Singapore,72.46.87.167
50.7012,3.21501,FR,France,Wattrelos,162.19.37.247
