latitude,longitude,Country Code,Country,City,IP Address
25.8119,-80.2318,US,United States,Miami,45.77.164.36
43.6547,-79.3623,CA,Canada,Toronto,159.203.6.120
51.5123,-0.0909,GB,United Kingdom,London,67.209.52.73
48.5734,7.75211,FR,France,Strasbourg,162.19.43.18
48.5734,7.75211,FR,France,Strasbourg,91.134.22.62
51.4808,0.174675,GB,United Kingdom,Erith,57.128.188.88
40.8229,-74.4592,US,United States,Cedar Knolls,45.79.149.203
37.5665,126.978,KR,South Korea,Seoul,52.79.171.57
39.018,-77.539,US,United States,Ashburn,150.136.127.40
