latitude,longitude,Country Code,Country,City,IP Address
39.0438,-77.4874,US,United States,Ashburn,52.0.54.100
37.5665,126.978,KR,South Korea,Seoul,52.79.171.57
50.7012,3.21501,FR,France,Wattrelos,162.19.37.247
39.0438,-77.4874,US,United States,Ashburn,54.91.222.127
52.352,4.9392,NL,The Netherlands,Amsterdam,84.32.186.15
48.2906,16.3441,AT,Austria,Klosterneuburg,185.119.118.68
34.0544,-118.2441,US,United States,Los Angeles,84.54.23.48
