latitude,longitude,Country Code,Country,City,IP Address
50.1109,8.68213,DE,Germany,Frankfurt am Main,52.58.243.225
48.5734,7.75211,FR,France,Strasbourg,91.134.22.62
51.5074,-0.1196,GB,United Kingdom,London,198.244.253.241
50.3986,8.07958,DE,Germany,Limburg an der Lahn,141.95.124.216
51.5074,-0.1196,GB,United Kingdom,London,198.244.253.243
37.5665,126.978,KR,South Korea,Seoul,52.79.171.57
48.8323,2.4075,FR,France,Paris,51.159.137.138
25.8119,-80.2318,US,United States,Miami,45.77.164.36
