latitude,longitude,Country Code,Country,City,IP Address
48.2906,16.3441,AT,Austria,Klosterneuburg,185.119.118.68
51.5123,-0.0909,GB,United Kingdom,London,67.209.52.73
40.8229,-74.4592,US,United States,Cedar Knolls,45.79.149.203
50.7012,3.21501,FR,France,Wattrelos,162.19.37.247
48.8323,2.4075,FR,France,Paris,51.159.137.138
