latitude,longitude,Country Code,Country,City,IP Address
51.4808,0.174675,GB,United Kingdom,Erith,57.128.188.88
50.7012,3.21501,FR,France,Wattrelos,162.19.85.200
51.5074,-0.1196,GB,United Kingdom,London,198.244.253.243
48.5734,7.75211,FR,France,Strasbourg,91.134.22.62
39.0438,-77.4874,US,United States,Ashburn,54.196.32.74
39.018,-77.539,US,United States,Ashburn,150.136.127.40
