latitude,longitude,Country Code,Country,City,IP Address
51.5074,-0.1196,GB,United Kingdom,London,198.244.253.241
39.0438,-77.4874,US,United States,Ashburn,3.239.38.16
-23.5335,-46.6359,BR,Brazil,São Paulo,177.54.147.193
51.1878,6.8607,DE,Germany,Düsseldorf,84.54.23.48
51.5074,-0.1196,GB,United Kingdom,London,198.244.253.243
52.352,4.9392,NL,The Netherlands,Amsterdam,84.32.186.15
