latitude,longitude,Country Code,Country,City,IP Address
51.5123,-0.0909,GB,United Kingdom,London,67.209.52.73
52.352,4.9392,NL,The Netherlands,Amsterdam,84.32.186.15
34.0544,-118.2441,US,United States,Los Angeles,84.54.23.48
53.3498,-6.26031,IE,Ireland,Dublin,34.244.236.193
49.4521,11.0767,DE,Germany,Nuremberg,88.198.36.237
51.5074,-0.1196,GB,United Kingdom,London,198.244.253.60
