latitude,longitude,Country Code,Country,City,IP Address
48.5734,7.75211,FR,France,Strasbourg,162.19.43.18
39.0438,-77.4874,US,United States,Ashburn,3.239.38.16
43.6547,-79.3623,CA,Canada,Toronto,159.203.0.182
39.0438,-77.4874,US,United States,Ashburn,3.91.91.237
50.3986,8.07958,DE,Germany,Limburg an der Lahn,141.95.124.216
50.1109,8.68213,DE,Germany,Frankfurt am Main,52.58.243.225
39.018,-77.539,US,United States,Ashburn,150.136.127.40
51.5074,-0.1196,GB,United Kingdom,London,198.244.253.243
