latitude,longitude,Country Code,Country,City,IP Address
51.4808,0.174675,GB,United Kingdom,Erith,57.128.188.88
39.018,-77.539,US,United States,Ashburn,150.136.127.40
38.9071,-77.0368,US,United States,Washington,34.86.160.44
32.8771,-80.013,US,United States,North Charleston,35.185.91.239
40.0992,-83.1141,US,United States,Dublin,3.132.241.37
37.3931,-121.962,US,United States,Santa Clara,64.227.110.67
51.5123,-0.0909,GB,United Kingdom,London,67.209.52.73
49.4423,11.0191,DE,Germany,Nuremberg,152.53.22.28
