latitude,longitude,Country Code,Country,City,IP Address
48.5734,7.75211,FR,France,Strasbourg,91.134.22.62
51.5123,-0.0909,GB,United Kingdom,London,67.209.52.73
25.8119,-80.2318,US,United States,Miami,45.77.164.36
50.7012,3.21501,FR,France,Wattrelos,162.19.37.247
37.5665,126.978,KR,South Korea,Seoul,52.79.171.57
43.6547,-79.3623,CA,Canada,Toronto,159.203.0.182
