latitude,longitude,Country Code,Country,City,IP Address
48.1951,16.3483,AT,Austria,Vienna,89.58.16.139
51.5123,-0.0909,GB,United Kingdom,London,67.209.52.73
39.0438,-77.4874,US,United States,Ashburn,3.91.91.237
48.2082,16.3738,AT,Austria,Vienna,37.252.190.222
39.0438,-77.4874,US,United States,Ashburn,52.0.54.100
50.475,12.365,DE,Germany,Falkenstein,49.12.150.240
50.7012,3.21501,FR,France,Wattrelos,162.19.37.247
50.3878,8.07286,DE,Germany,Limburg an der Lahn,141.95.124.216
