latitude,longitude,Country Code,Country,City,IP Address
50.1109,8.68213,DE,Germany,Frankfurt am Main,52.58.243.225
51.4808,0.174675,GB,United Kingdom,Erith,57.128.188.88
40.8229,-74.4592,US,United States,Cedar Knolls,45.79.149.203
48.8323,2.4075,FR,France,Paris,51.159.137.138
43.6547,-79.3623,CA,Canada,Toronto,143.198.46.130
48.2082,16.3738,AT,Austria,Vienna,37.252.190.222
