latitude,longitude,Country Code,Country,City,IP Address
50.3986,8.07958,DE,Germany,Limburg an der Lahn,141.95.124.216
43.6547,-79.3623,CA,Canada,Toronto,159.203.6.120
39.0438,-77.4874,US,United States,Ashburn,3.91.91.237
39.0438,-77.4874,US,United States,Ashburn,52.0.54.100
50.1109,8.68213,DE,Germany,Frankfurt am Main,52.58.243.225
48.2906,16.3441,AT,Austria,Klosterneuburg,185.119.118.68
48.2082,16.3738,AT,Austria,Vienna,37.252.190.222
48.5734,7.75211,FR,France,Strasbourg,162.19.43.18
48.5734,7.75211,FR,France,Strasbourg,91.134.22.62
