latitude,longitude,Country Code,Country,City,IP Address
39.0438,-77.4874,US,United States,Ashburn,52.0.54.100
49.4423,11.0191,DE,Germany,Nuremberg,152.53.22.28
37.5665,126.978,KR,South Korea,Seoul,52.79.171.57
48.2906,16.3441,AT,Austria,Klosterneuburg,185.119.118.68
51.5074,-0.1196,GB,United Kingdom,London,198.244.253.60
