latitude,longitude,Country Code,Country,City,IP Address
51.5123,-0.0909,GB,United Kingdom,London,67.209.52.73
53.3498,-6.26031,IE,Ireland,Dublin,34.244.236.193
50.7012,3.21501,FR,France,Wattrelos,162.19.37.247
48.2082,16.3738,AT,Austria,Vienna,37.252.190.222
39.0438,-77.4874,US,United States,Ashburn,54.91.222.127
37.5665,126.978,KR,South Korea,Seoul,52.79.171.57
