latitude,longitude,Country Code,Country,City,IP Address
50.3986,8.07958,DE,Germany,Limburg an der Lahn,141.95.124.216
40.0992,-83.1141,US,United States,Dublin,3.132.241.37
51.5074,-0.1196,GB,United Kingdom,London,198.244.253.243
49.4527,11.0783,DE,Germany,Nuremberg,88.198.36.237
39.018,-77.539,US,United States,Ashburn,150.136.127.40
39.0438,-77.4874,US,United States,Ashburn,3.239.38.16
39.0438,-77.4874,US,United States,Ashburn,54.91.222.127
52.352,4.9392,NL,The Netherlands,Amsterdam,84.32.186.15
