latitude,longitude,Country Code,Country,City,IP Address
25.8119,-80.2318,US,United States,Miami,45.77.164.36
48.5734,7.75211,FR,France,Strasbourg,162.19.43.6
48.1951,16.3483,AT,Austria,Vienna,89.58.16.139
43.6547,-79.3623,CA,Canada,Toronto,159.203.6.120
51.5074,-0.1196,GB,United Kingdom,London,198.244.253.60
1.43508,103.804,SG,Singapore,Singapore,72.46.87.185
32.8771,-80.013,US,United States,North Charleston,35.185.91.239
50.7012,3.21501,FR,France,Wattrelos,141.94.3.10
