latitude,longitude,Country Code,Country,City,IP Address
43.6547,-79.3623,CA,Canada,Toronto,143.198.46.130
50.4777,12.3649,DE,Germany,Falkenstein,49.12.150.240
37.3931,-121.962,US,United States,Santa Clara,64.227.110.67
38.9071,-77.0368,US,United States,Washington,34.86.160.44
39.018,-77.539,US,United States,Ashburn,129.213.156.73
40.8229,-74.4592,US,United States,Cedar Knolls,45.79.149.203
