latitude,longitude,Country Code,Country,City,IP Address
48.2906,16.3441,AT,Austria,Klosterneuburg,185.119.118.68
39.0438,-77.4874,US,United States,Ashburn,3.239.38.16
43.6547,-79.3623,CA,Canada,Toronto,159.203.6.120
52.352,4.9392,NL,The Netherlands,Amsterdam,84.32.186.15
50.4777,12.3649,DE,Germany,Falkenstein,49.12.150.240
39.0438,-77.4874,US,United States,Ashburn,52.0.54.100
43.6547,-79.3623,CA,Canada,Toronto,143.198.46.130
51.5074,-0.1196,GB,United Kingdom,London,198.244.253.241
51.5123,-0.0909,GB,United Kingdom,London,67.209.52.73
