latitude,longitude,Country Code,Country,City,IP Address
32.8771,-80.013,US,United States,North Charleston,35.185.91.239
39.0438,-77.4874,US,United States,Ashburn,54.196.32.74
53.3498,-6.26031,IE,Ireland,Dublin,34.244.236.193
39.0438,-77.4874,US,United States,Ashburn,52.0.54.100
39.0438,-77.4874,US,United States,Ashburn,54.91.222.127
50.7012,3.21501,FR,France,Wattrelos,162.19.37.247
41.0416,-73.9572,US,United States,Orangeburg,89.117.78.187
51.4808,0.174675,GB,United Kingdom,Erith,57.128.188.88
1.43508,103.804,SG,Singapore,Singapore,72.46.87.185
