latitude,longitude,Country Code,Country,City,IP Address
39.018,-77.539,US,United States,Ashburn,150.136.127.40
51.5123,-0.0909,GB,United Kingdom,London,67.209.52.73
40.0992,-83.1141,US,United States,Dublin,3.132.241.37
50.1109,8.68213,DE,Germany,Frankfurt am Main,52.58.243.225
53.3498,-6.26031,IE,Ireland,Dublin,34.244.236.193
51.4808,0.174675,GB,United Kingdom,Erith,57.128.188.88
