latitude,longitude,Country Code,Country,City,IP Address
50.3986,8.07958,DE,Germany,Limburg an der Lahn,141.95.124.216
48.2082,16.3738,AT,Austria,Vienna,37.252.190.222
39.0438,-77.4874,US,United States,Ashburn,54.91.222.127
52.352,4.9392,NL,The Netherlands,Amsterdam,84.32.186.15
49.4423,11.0191,DE,Germany,Nuremberg,152.53.22.28
