latitude,longitude,Country Code,Country,City,IP Address
48.5734,7.75211,FR,France,Strasbourg,91.134.22.6
39.0438,-77.4874,US,United States,Ashburn,3.91.91.237
50.3986,8.07958,DE,Germany,Limburg an der Lahn,141.95.124.216
48.2906,16.3441,AT,Austria,Klosterneuburg,185.119.118.68
43.6547,-79.3623,CA,Canada,Toronto,143.198.46.130
50.7012,3.21501,FR,France,Wattrelos,141.94.3.10
39.0438,-77.4874,US,United States,Ashburn,54.196.32.74
52.352,4.9392,NL,The Netherlands,Amsterdam,84.32.186.15
