latitude,longitude,Country Code,Country,City,IP Address
51.4808,0.174675,GB,United Kingdom,Erith,57.128.188.88
50.7012,3.21501,FR,France,Wattrelos,162.19.37.247
39.0438,-77.4874,US,United States,Ashburn,54.196.32.74
50.7012,3.21501,FR,France,Wattrelos,162.19.85.200
50.7012,3.21501,FR,France,Wattrelos,141.94.3.10
39.0438,-77.4874,US,United States,Ashburn,52.0.54.100
37.5665,126.978,KR,South Korea,Seoul,52.79.171.57
51.5123,-0.0909,GB,United Kingdom,London,67.209.52.73
50.1109,8.68213,DE,Germany,Frankfurt am Main,52.58.243.225
