latitude,longitude,Country Code,Country,City,IP Address
39.0438,-77.4874,US,United States,Ashburn,44.197.172.154
50.7012,3.21501,FR,France,Wattrelos,141.94.3.10
48.5734,7.75211,FR,France,Strasbourg,162.19.43.6
48.1951,16.3483,AT,Austria,Vienna,89.58.16.139
50.1109,8.68213,DE,Germany,Frankfurt am Main,52.58.243.225
39.018,-77.539,US,United States,Ashburn,150.136.127.40
39.018,-77.539,US,United States,Ashburn,132.145.202.110
39.0438,-77.4874,US,United States,Ashburn,54.91.222.127
