latitude,longitude,Country Code,Country,City,IP Address
25.8119,-80.2318,US,United States,Miami,45.77.164.36
43.6547,-79.3623,CA,Canada,Toronto,159.203.6.120
48.1951,16.3483,AT,Austria,Vienna,89.58.16.139
50.4777,12.3649,DE,Germany,Falkenstein,49.12.150.240
39.0438,-77.4874,US,United States,Ashburn,3.239.38.16
40.8229,-74.4592,US,United States,Cedar Knolls,45.79.149.203
52.352,4.9392,NL,The Netherlands,Amsterdam,84.32.186.15
