latitude,longitude,Country Code,Country,City,IP Address
50.1109,8.68213,DE,Germany,Frankfurt am Main,52.58.243.225
25.8119,-80.2318,US,United States,Miami,45.77.164.36
51.5074,-0.1196,GB,United Kingdom,London,198.244.253.60
51.4808,0.174675,GB,United Kingdom,Erith,57.128.188.88
43.6547,-79.3623,CA,Canada,Toronto,159.203.6.120
50.3986,8.07958,DE,Germany,Limburg an der Lahn,141.95.124.216
