latitude,longitude,Country Code,Country,City,IP Address
51.4808,0.174675,GB,United Kingdom,Erith,57.128.188.88
25.8119,-80.2318,US,United States,Miami,45.77.164.36
32.8771,-80.013,US,United States,North Charleston,35.185.91.239
50.3986,8.07958,DE,Germany,Limburg an der Lahn,141.95.124.216
39.0438,-77.4874,US,United States,Ashburn,54.196.32.74
43.6547,-79.3623,CA,Canada,Toronto,143.198.46.130
49.4527,11.0783,DE,Germany,Nuremberg,88.198.36.237
