latitude,longitude,Country Code,Country,City,IP Address
49.4423,11.0191,DE,Germany,Nuremberg,152.53.22.28
43.6547,-79.3623,CA,Canada,Toronto,159.203.0.182
50.3986,8.07958,DE,Germany,Limburg an der Lahn,141.95.124.216
39.0438,-77.4874,US,United States,Ashburn,54.196.32.74
48.5734,7.75211,FR,France,Strasbourg,162.19.43.18
51.5074,-0.1196,GB,United Kingdom,London,198.244.253.241
50.4777,12.3649,DE,Germany,Falkenstein,49.12.150.240
51.4808,0.174675,GB,United Kingdom,Erith,57.128.188.88
50.7012,3.21501,FR,France,Wattrelos,162.19.37.247
