latitude,longitude,Country Code,Country,City,IP Address
39.0438,-77.4874,US,United States,Ashburn,3.91.91.237
49.4423,11.0191,DE,Germany,Nuremberg,152.53.22.28
48.5734,7.75211,FR,France,Strasbourg,91.134.22.6
38.9071,-77.0368,US,United States,Washington,34.86.160.44
49.4527,11.0783,DE,Germany,Nuremberg,88.198.36.237
48.2082,16.3738,AT,Austria,Vienna,37.252.190.222
50.1109,8.68213,DE,Germany,Frankfurt am Main,52.58.243.225
40.8229,-74.4592,US,United States,Cedar Knolls,45.79.149.203
