latitude,longitude,Country Code,Country,City,IP Address
50.3986,8.07958,DE,Germany,Limburg an der Lahn,141.95.124.216
32.8771,-80.013,US,United States,North Charleston,35.185.91.239
50.1109,8.68213,DE,Germany,Frankfurt am Main,52.58.243.225
37.5665,126.978,KR,South Korea,Seoul,52.79.171.57
49.4423,11.0191,DE,Germany,Nuremberg,152.53.22.28
43.6547,-79.3623,CA,Canada,Toronto,143.198.46.130
