latitude,longitude,Country Code,Country,City,IP Address
51.4808,0.174675,GB,United Kingdom,Erith,57.128.188.88
40.0992,-83.1141,US,United States,Dublin,3.132.241.37
1.43508,103.804,SG,Singapore,Singapore,72.46.87.185
32.8771,-80.013,US,United States,North Charleston,35.185.91.239
39.0438,-77.4874,US,United States,Ashburn,52.0.54.100
48.5734,7.75211,FR,France,Strasbourg,162.19.43.6
43.6547,-79.3623,CA,Canada,Toronto,159.203.6.120
