latitude,longitude,Country Code,Country,City,IP Address
25.8119,-80.2318,US,United States,Miami,45.77.164.36
48.5734,7.75211,FR,France,Strasbourg,91.134.22.6
48.2906,16.3441,AT,Austria,Klosterneuburg,185.119.118.68
51.5074,-0.1196,GB,United Kingdom,London,198.244.253.60
43.6547,-79.3623,CA,Canada,Toronto,159.203.6.120
39.018,-77.539,US,United States,Ashburn,150.136.127.40
43.6547,-79.3623,CA,Canada,Toronto,159.203.0.182
39.018,-77.539,US,United States,Ashburn,132.145.202.110
49.4423,11.0191,DE,Germany,Nuremberg,152.53.22.28
