latitude,longitude,Country Code,Country,City,IP Address
49.4423,11.0191,DE,Germany,Nuremberg,152.53.22.28
1.43508,103.804,SG,Singapore,Singapore,72.46.87.185
37.5665,126.978,KR,South Korea,Seoul,52.79.171.57
41.0416,-73.9572,US,United States,Orangeburg,89.117.78.187
39.0438,-77.4874,US,United States,Ashburn,54.196.32.74
50.1109,8.68213,DE,Germany,Frankfurt am Main,52.58.243.225
43.6547,-79.3623,CA,Canada,Toronto,159.203.6.120
51.5123,-0.0909,GB,United Kingdom,London,67.209.52.73
