latitude,longitude,Country Code,Country,City,IP Address
52.352,4.9392,NL,The Netherlands,Amsterdam,84.32.186.15
48.1951,16.3483,AT,Austria,Vienna,89.58.16.139
40.8229,-74.4592,US,United States,Cedar Knolls,45.79.149.203
53.3498,-6.26031,IE,Ireland,Dublin,34.244.236.193
49.4521,11.0767,DE,Germany,Nuremberg,88.198.36.237
49.4423,11.0191,DE,Germany,Nuremberg,152.53.22.28
