latitude,longitude,Country Code,Country,City,IP Address
50.1109,8.68213,DE,Germany,Frankfurt am Main,52.58.243.225
32.8771,-80.013,US,United States,North Charleston,35.185.91.239
51.5123,-0.0909,GB,United Kingdom,London,67.209.52.73
39.018,-77.539,US,United States,Ashburn,150.136.127.40
50.7012,3.21501,FR,France,Wattrelos,141.94.3.10
48.5734,7.75211,FR,France,Strasbourg,91.134.22.62
