latitude,longitude,Country Code,Country,City,IP Address
48.1951,16.3483,AT,Austria,Vienna,89.58.16.139
39.018,-77.539,US,United States,Ashburn,150.136.127.40
48.8323,2.4075,FR,France,Paris,51.159.137.138
50.7012,3.21501,FR,France,Wattrelos,162.19.37.247
50.3986,8.07958,DE,Germany,Limburg an der Lahn,141.95.124.216
50.4777,12.3649,DE,Germany,Falkenstein,49.12.150.240
