latitude,longitude,Country Code,Country,City,IP Address
48.1951,16.3483,AT,Austria,Vienna,89.58.16.139
51.4808,0.174675,GB,United Kingdom,Erith,57.128.188.88
39.0438,-77.4874,US,United States,Ashburn,54.196.32.74
50.7012,3.21501,FR,France,Wattrelos,141.94.3.10
51.5074,-0.1196,GB,United Kingdom,London,198.244.253.241
38.9071,-77.0368,US,United States,Washington,34.86.160.44
48.2906,16.3441,AT,Austria,Klosterneuburg,185.119.118.68
52.352,4.9392,NL,The Netherlands,Amsterdam,84.32.186.15
