latitude,longitude,Country Code,Country,City,IP Address
48.2906,16.3441,AT,Austria,Klosterneuburg,185.119.118.68
39.018,-77.539,US,United States,Ashburn,150.136.127.40
32.8771,-80.013,US,United States,North Charleston,35.185.91.239
48.5734,7.75211,FR,France,Strasbourg,162.19.43.18
40.0992,-83.1141,US,United States,Dublin,3.132.241.37
1.43508,103.804,SG,Singapore,Singapore,72.46.87.167
