latitude,longitude,Country Code,Country,City,IP Address
39.0438,-77.4874,US,United States,Ashburn,3.91.91.237
53.3498,-6.26031,IE,Ireland,Dublin,34.244.236.193
50.3878,8.07286,DE,Germany,Limburg an der Lahn,141.95.124.216
37.5665,126.978,KR,South Korea,Seoul,52.79.171.57
40.8229,-74.4592,US,United States,Cedar Knolls,45.79.149.203
48.2906,16.3441,AT,Austria,Klosterneuburg,185.119.118.68
