latitude,longitude,Country Code,Country,City,IP Address
32.8771,-80.013,US,United States,North Charleston,35.185.91.239
48.5734,7.75211,FR,France,Strasbourg,162.19.43.18
53.3498,-6.26031,IE,Ireland,Dublin,34.244.236.193
25.8119,-80.2318,US,United States,Miami,45.77.164.36
50.7012,3.21501,FR,France,Wattrelos,141.94.3.10
48.2082,16.3738,AT,Austria,Vienna,37.252.190.222
52.352,4.9392,NL,The Netherlands,Amsterdam,84.32.186.15
43.6547,-79.3623,CA,Canada,Toronto,159.203.0.182
