latitude,longitude,Country Code,Country,City,IP Address
32.8771,-80.013,US,United States,North Charleston,35.185.91.239
39.0438,-77.4874,US,United States,Ashburn,44.197.172.154
39.0438,-77.4874,US,United States,Ashburn,54.196.32.74
39.018,-77.539,US,United States,Ashburn,150.136.127.40
40.8229,-74.4592,US,United States,Cedar Knolls,45.79.149.203
51.4808,0.174675,GB,United Kingdom,Erith,57.128.188.88
41.0416,-73.9572,US,United States,Orangeburg,89.117.78.187
43.6547,-79.3623,CA,Canada,Toronto,159.203.0.182
50.3986,8.07958,DE,Germany,Limburg an der Lahn,141.95.124.216
