latitude,longitude,Country Code,Country,City,IP Address
50.7012,3.21501,FR,France,Wattrelos,141.94.3.10
48.1951,16.3483,AT,Austria,Vienna,89.58.16.139
25.8119,-80.2318,US,United States,Miami,45.77.164.36
39.0438,-77.4874,US,United States,Ashburn,3.91.91.237
48.2906,16.3441,AT,Austria,Klosterneuburg,185.119.118.68
41.0416,-73.9572,US,United States,Orangeburg,89.117.78.187
39.018,-77.539,US,United States,Ashburn,150.136.127.40
48.5734,7.75211,FR,France,Strasbourg,162.19.43.6
51.5074,-0.1196,GB,United Kingdom,London,198.244.253.241
