latitude,longitude,Country Code,Country,City,IP Address
37.5665,126.978,KR,South Korea,Seoul,52.79.171.57
39.0438,-77.4874,US,United States,Ashburn,3.239.38.16
50.3986,8.07958,DE,Germany,Limburg an der Lahn,141.95.124.216
48.5734,7.75211,FR,France,Strasbourg,162.19.43.18
51.5123,-0.0909,GB,United Kingdom,London,67.209.52.73
40.0992,-83.1141,US,United States,Dublin,3.132.241.37
40.8229,-74.4592,US,United States,Cedar Knolls,45.79.149.203
