latitude,longitude,Country Code,Country,City,IP Address
37.5665,126.978,KR,South Korea,Seoul,52.79.171.57
51.4808,0.174675,GB,United Kingdom,Erith,57.128.188.88
49.4423,11.0191,DE,Germany,Nuremberg,152.53.22.28
37.3931,-121.962,US,United States,Santa Clara,64.227.110.67
53.3498,-6.26031,IE,Ireland,Dublin,34.244.236.193
43.6547,-79.3623,CA,Canada,Toronto,143.198.46.130
1.43508,103.804,SG,Singapore,Singapore,72.46.87.185
48.5734,7.75211,FR,France,Strasbourg,91.134.22.62
51.5074,-0.1196,GB,United Kingdom,London,198.244.253.241
