latitude,longitude,Country Code,Country,City,IP Address
50.475,12.365,DE,Germany,Falkenstein,49.12.150.240
39.0438,-77.4874,US,United States,Ashburn,54.91.222.127
50.7012,3.21501,FR,France,Wattrelos,162.19.37.247
48.2906,16.3441,AT,Austria,Klosterneuburg,185.119.118.68
49.4521,11.0767,DE,Germany,Nuremberg,88.198.36.237
