latitude,longitude,Country Code,Country,City,IP Address
39.0438,-77.4874,US,United States,Ashburn,3.239.38.16
48.1951,16.3483,AT,Austria,Vienna,89.58.16.139
43.6547,-79.3623,CA,Canada,Toronto,159.203.6.120
40.0992,-83.1141,US,United States,Dublin,3.132.241.37
49.4527,11.0783,DE,Germany,Nuremberg,88.198.36.237
52.352,4.9392,NL,The Netherlands,Amsterdam,84.32.186.15
48.5734,7.75211,FR,France,Strasbourg,162.19.43.18
48.8323,2.4075,FR,France,Paris,51.159.137.138
