latitude,longitude,Country Code,Country,City,IP Address
51.5074,-0.1196,GB,United Kingdom,London,198.244.253.241
39.0438,-77.4874,US,United States,Ashburn,54.196.32.74
48.5734,7.75211,FR,France,Strasbourg,162.19.43.6
37.3931,-121.962,US,United States,Santa Clara,64.227.110.67
48.2082,16.3738,AT,Austria,Vienna,37.252.190.222
1.43508,103.804,SG,Singapore,Singapore,72.46.87.167
51.5123,-0.0909,GB,United Kingdom,London,67.209.52.73
