latitude,longitude,Country Code,Country,City,IP Address
39.0438,-77.4874,US,United States,Ashburn,54.196.32.74
49.4423,11.0191,DE,Germany,Nuremberg,152.53.22.28
39.018,-77.539,US,United States,Ashburn,150.136.127.40
51.5074,-0.1196,GB,United Kingdom,London,198.244.253.241
39.0438,-77.4874,US,United States,Ashburn,3.91.91.237
43.6547,-79.3623,CA,Canada,Toronto,159.203.6.120
50.3986,8.07958,DE,Germany,Limburg an der Lahn,141.95.124.216
