latitude,longitude,Country Code,Country,City,IP Address
39.018,-77.539,US,United States,Ashburn,150.136.127.40
43.6547,-79.3623,CA,Canada,Toronto,159.203.6.120
39.0438,-77.4874,US,United States,Ashburn,3.91.91.237
51.5123,-0.0909,GB,United Kingdom,London,67.209.52.73
25.8119,-80.2318,US,United States,Miami,45.77.164.36
41.0416,-73.9572,US,United States,Orangeburg,89.117.78.187
43.6547,-79.3623,CA,Canada,Toronto,143.198.46.130
37.3931,-121.962,US,United States,Santa Clara,64.227.110.67
