latitude,longitude,Country Code,Country,City,IP Address
48.1951,16.3483,AT,Austria,Vienna,89.58.16.139
39.0438,-77.4874,US,United States,Ashburn,54.196.32.74
32.8771,-80.013,US,United States,North Charleston,35.185.91.239
48.2906,16.3441,AT,Austria,Klosterneuburg,185.119.118.68
38.9071,-77.0368,US,United States,Washington,34.86.160.44
50.1109,8.68213,DE,Germany,Frankfurt am Main,52.58.243.225
50.3986,8.07958,DE,Germany,Limburg an der Lahn,141.95.124.216
51.5074,-0.1196,GB,United Kingdom,London,198.244.253.60
