latitude,longitude,Country Code,Country,City,IP Address
50.7012,3.21501,FR,France,Wattrelos,162.19.85.200
32.8771,-80.013,US,United States,North Charleston,35.185.91.239
39.0438,-77.4874,US,United States,Ashburn,3.91.91.237
37.5665,126.978,KR,South Korea,Seoul,52.79.171.57
48.1951,16.3483,AT,Austria,Vienna,89.58.16.139
51.5074,-0.1196,GB,United Kingdom,London,198.244.253.60
39.0438,-77.4874,US,United States,Ashburn,54.196.32.74
25.8119,-80.2318,US,United States,Miami,45.77.164.36
