latitude,longitude,Country Code,Country,City,IP Address
51.5123,-0.0909,GB,United Kingdom,London,67.209.52.73
39.0438,-77.4874,US,United States,Ashburn,3.91.91.237
53.3498,-6.26031,IE,Ireland,Dublin,34.244.236.193
39.0438,-77.4874,US,United States,Ashburn,54.91.222.127
37.5665,126.978,KR,South Korea,Seoul,52.79.171.57
48.2906,16.3441,AT,Austria,Klosterneuburg,185.119.118.68
48.2082,16.3738,AT,Austria,Vienna,37.252.190.222
49.4423,11.0191,DE,Germany,Nuremberg,152.53.22.28
