latitude,longitude,Country Code,Country,City,IP Address
39.018,-77.539,US,United States,Ashburn,150.136.127.40
49.4423,11.0191,DE,Germany,Nuremberg,152.53.22.28
48.2906,16.3441,AT,Austria,Klosterneuburg,185.119.118.68
51.5074,-0.1196,GB,United Kingdom,London,198.244.253.241
48.5734,7.75211,FR,France,Strasbourg,162.19.43.18
39.0438,-77.4874,US,United States,Ashburn,54.91.222.127
53.3498,-6.26031,IE,Ireland,Dublin,34.244.236.193
40.0992,-83.1141,US,United States,Dublin,3.132.241.37
40.8229,-74.4592,US,United States,Cedar Knolls,45.79.149.203
