latitude,longitude,Country Code,Country,City,IP Address
43.6547,-79.3623,CA,Canada,Toronto,159.203.0.182
50.3986,8.07958,DE,Germany,Limburg an der Lahn,141.95.124.216
50.1109,8.68213,DE,Germany,Frankfurt am Main,52.58.243.225
43.6547,-79.3623,CA,Canada,Toronto,143.198.46.130
39.0438,-77.4874,US,United States,Ashburn,3.239.38.16
32.8771,-80.013,US,United States,North Charleston,35.185.91.239
48.5734,7.75211,FR,France,Strasbourg,91.134.22.62
37.5665,126.978,KR,South Korea,Seoul,52.79.171.57
