latitude,longitude,Country Code,Country,City,IP Address
39.0438,-77.4874,US,United States,Ashburn,52.0.54.100
48.1951,16.3483,AT,Austria,Vienna,89.58.16.139
51.5074,-0.1196,GB,United Kingdom,London,198.244.253.60
50.3878,8.07286,DE,Germany,Limburg an der Lahn,141.95.124.216
49.4423,11.0191,DE,Germany,Nuremberg,152.53.22.28
37.5665,126.978,KR,South Korea,Seoul,52.79.171.57
39.0438,-77.4874,US,United States,Ashburn,3.91.91.237
49.4521,11.0767,DE,Germany,Nuremberg,88.198.36.237
