latitude,longitude,Country Code,Country,City,IP Address
37.5665,126.978,KR,South Korea,Seoul,52.79.171.57
49.4423,11.0191,DE,Germany,Nuremberg,152.53.22.28
48.5734,7.75211,FR,France,Strasbourg,91.134.22.6
38.9071,-77.0368,US,United States,Washington,34.86.160.44
43.6547,-79.3623,CA,Canada,Toronto,143.198.46.130
48.1951,16.3483,AT,Austria,Vienna,89.58.16.139
