latitude,longitude,Country Code,Country,City,IP Address
52.352,4.9392,NL,The Netherlands,Amsterdam,84.32.186.15
34.0544,-118.2441,US,United States,Los Angeles,84.54.23.48
51.5123,-0.0909,GB,United Kingdom,London,67.209.52.73
53.3498,-6.26031,IE,Ireland,Dublin,34.244.236.193
50.475,12.365,DE,Germany,Falkenstein,49.12.150.240
