latitude,longitude,Country Code,Country,City,IP Address
48.2906,16.3441,AT,Austria,Klosterneuburg,185.119.118.68
39.0438,-77.4874,US,United States,Ashburn,52.0.54.100
51.5123,-0.0909,GB,United Kingdom,London,67.209.52.73
40.8229,-74.4592,US,United States,Cedar Knolls,45.79.149.203
37.5665,126.978,KR,South Korea,Seoul,52.79.171.57
48.1951,16.3483,AT,Austria,Vienna,89.58.16.139
53.3498,-6.26031,IE,Ireland,Dublin,34.244.236.193
