latitude,longitude,Country Code,Country,City,IP Address
48.1951,16.3483,AT,Austria,Vienna,89.58.16.139
40.8229,-74.4592,US,United States,Cedar Knolls,45.79.149.203
53.3498,-6.26031,IE,Ireland,Dublin,34.244.236.193
48.2082,16.3738,AT,Austria,Vienna,37.252.190.222
49.4423,11.0191,DE,Germany,Nuremberg,152.53.22.28
39.0438,-77.4874,US,United States,Ashburn,54.91.222.127
52.352,4.9392,NL,The Netherlands,Amsterdam,84.32.186.15
37.5665,126.978,KR,South Korea,Seoul,52.79.171.57
50.475,12.365,DE,Germany,Falkenstein,49.12.150.240
