latitude,longitude,Country Code,Country,City,IP Address
39.0438,-77.4874,US,United States,Ashburn,44.197.172.154
43.6547,-79.3623,CA,Canada,Toronto,159.203.6.120
25.8119,-80.2318,US,United States,Miami,45.77.164.36
53.3498,-6.26031,IE,Ireland,Dublin,34.244.236.193
48.5734,7.75211,FR,France,Strasbourg,91.134.22.6
48.2906,16.3441,AT,Austria,Klosterneuburg,185.119.118.68
39.0438,-77.4874,US,United States,Ashburn,3.239.38.16
50.4777,12.3649,DE,Germany,Falkenstein,49.12.150.240
