latitude,longitude,Country Code,Country,City,IP Address
37.5665,126.978,KR,South Korea,Seoul,52.79.171.57
39.018,-77.539,US,United States,Ashburn,150.136.127.40
39.0438,-77.4874,US,United States,Ashburn,3.239.38.16
43.6547,-79.3623,CA,Canada,Toronto,159.203.0.182
48.5734,7.75211,FR,France,Strasbourg,91.134.22.62
40.0992,-83.1141,US,United States,Dublin,3.132.241.37
48.2082,16.3738,AT,Austria,Vienna,37.252.190.222
49.4527,11.0783,DE,Germany,Nuremberg,88.198.36.237
50.3986,8.07958,DE,Germany,Limburg an der Lahn,141.95.124.216
