latitude,longitude,Country Code,Country,City,IP Address
51.5074,-0.1196,GB,United Kingdom,London,198.244.253.241
48.5734,7.75211,FR,France,Strasbourg,91.134.22.62
39.0438,-77.4874,US,United States,Ashburn,52.0.54.100
49.4423,11.0191,DE,Germany,Nuremberg,152.53.22.28
25.8119,-80.2318,US,United States,Miami,45.77.164.36
