latitude,longitude,Country Code,Country,City,IP Address
51.5123,-0.0909,GB,United Kingdom,London,67.209.52.73
34.0544,-118.2441,US,United States,Los Angeles,84.54.23.48
48.2082,16.3738,AT,Austria,Vienna,37.252.190.222
49.4521,11.0767,DE,Germany,Nuremberg,88.198.36.237
50.3878,8.07286,DE,Germany,Limburg an der Lahn,141.95.124.216
