latitude,longitude,Country Code,Country,City,IP Address
43.6547,-79.3623,CA,Canada,Toronto,159.203.0.182
39.018,-77.539,US,United States,Ashburn,150.136.127.40
32.8771,-80.013,US,United States,North Charleston,35.185.91.239
39.0438,-77.4874,US,United States,Ashburn,44.197.172.154
51.5074,-0.1196,GB,United Kingdom,London,198.244.253.60
48.5734,7.75211,FR,France,Strasbourg,162.19.43.18
37.3931,-121.962,US,United States,Santa Clara,64.227.110.67
48.5734,7.75211,FR,France,Strasbourg,162.19.43.6
