latitude,longitude,Country Code,Country,City,IP Address
49.4423,11.0191,DE,Germany,Nuremberg,152.53.22.28
48.2082,16.3738,AT,Austria,Vienna,37.252.190.222
39.0438,-77.4874,US,United States,Ashburn,52.0.54.100
48.2906,16.3441,AT,Austria,Klosterneuburg,185.119.118.68
48.8323,2.4075,FR,France,Paris,51.159.137.138
50.475,12.365,DE,Germany,Falkenstein,49.12.150.240
53.3498,-6.26031,IE,Ireland,Dublin,34.244.236.193
51.5074,-0.1196,GB,United Kingdom,London,198.244.253.60
