latitude,longitude,Country Code,Country,City,IP Address
39.0438,-77.4874,US,United States,Ashburn,52.0.54.100
40.0992,-83.1141,US,United States,Dublin,3.132.241.37
25.8119,-80.2318,US,United States,Miami,45.77.164.36
50.3986,8.07958,DE,Germany,Limburg an der Lahn,141.95.124.216
43.6547,-79.3623,CA,Canada,Toronto,159.203.6.120
48.1951,16.3483,AT,Austria,Vienna,89.58.16.139
51.4808,0.174675,GB,United Kingdom,Erith,57.128.188.88
43.6547,-79.3623,CA,Canada,Toronto,159.203.0.182
