latitude,longitude,Country Code,Country,City,IP Address
49.4423,11.0191,DE,Germany,Nuremberg,152.53.22.28
39.0438,-77.4874,US,United States,Ashburn,3.91.91.237
39.0438,-77.4874,US,United States,Ashburn,54.196.32.74
50.3986,8.07958,DE,Germany,Limburg an der Lahn,141.95.124.216
51.5074,-0.1196,GB,United Kingdom,London,198.244.253.241
50.7012,3.21501,FR,France,Wattrelos,141.94.3.10
48.5734,7.75211,FR,France,Strasbourg,162.19.43.18
39.018,-77.539,US,United States,Ashburn,150.136.127.40
