latitude,longitude,Country Code,Country,City,IP Address
43.6547,-79.3623,CA,Canada,Toronto,159.203.0.182
48.1951,16.3483,AT,Austria,Vienna,89.58.16.139
39.0438,-77.4874,US,United States,Ashburn,52.0.54.100
48.2082,16.3738,AT,Austria,Vienna,37.252.190.222
50.7012,3.21501,FR,France,Wattrelos,162.19.37.247
48.2906,16.3441,AT,Austria,Klosterneuburg,185.119.118.68
