latitude,longitude,Country Code,Country,City,IP Address
51.4808,0.174675,GB,United Kingdom,Erith,57.128.188.88
50.3986,8.07958,DE,Germany,Limburg an der Lahn,141.95.124.216
51.5074,-0.1196,GB,United Kingdom,London,198.244.253.241
50.7012,3.21501,FR,France,Wattrelos,141.94.3.10
39.0438,-77.4874,US,United States,Ashburn,54.196.32.74
38.9071,-77.0368,US,United States,Washington,34.86.160.44
