latitude,longitude,Country Code,Country,City,IP Address
48.1951,16.3483,AT,Austria,Vienna,89.58.16.139
50.3878,8.07286,DE,Germany,Limburg an der Lahn,141.95.124.216
50.475,12.365,DE,Germany,Falkenstein,49.12.150.240
48.8323,2.4075,FR,France,Paris,51.159.137.138
49.4521,11.0767,DE,Germany,Nuremberg,88.198.36.237
40.8229,-74.4592,US,United States,Cedar Knolls,45.79.149.203
48.2906,16.3441,AT,Austria,Klosterneuburg,185.119.118.68
