latitude,longitude,Country Code,Country,City,IP Address
25.8119,-80.2318,US,United States,Miami,45.77.164.36
32.8771,-80.013,US,United States,North Charleston,35.185.91.239
39.0438,-77.4874,US,United States,Ashburn,44.197.172.154
50.3986,8.07958,DE,Germany,Limburg an der Lahn,141.95.124.216
41.0416,-73.9572,US,United States,Orangeburg,89.117.78.187
