latitude,longitude,Country Code,Country,City,IP Address
25.8119,-80.2318,US,United States,Miami,45.77.164.36
40.0992,-83.1141,US,United States,Dublin,3.132.241.37
49.4423,11.0191,DE,Germany,Nuremberg,152.53.22.28
43.6547,-79.3623,CA,Canada,Toronto,159.203.6.120
1.43508,103.804,SG,Singapore,Singapore,72.46.87.185
37.3931,-121.962,US,United States,Santa Clara,64.227.110.67
1.43508,103.804,SG,Singapore,Singapore,72.46.87.167
39.0438,-77.4874,US,United States,Ashburn,52.0.54.100
