latitude,longitude,Country Code,Country,City,IP Address
39.0438,-77.4874,US,United States,Ashburn,3.91.91.237
39.0438,-77.4874,US,United States,Ashburn,52.0.54.100
52.352,4.9392,NL,The Netherlands,Amsterdam,84.32.186.15
40.8229,-74.4592,US,United States,Cedar Knolls,45.79.149.203
53.3498,-6.26031,IE,Ireland,Dublin,34.244.236.193
50.7012,3.21501,FR,France,Wattrelos,162.19.37.247
48.8323,2.4075,FR,France,Paris,51.159.137.138
48.2082,16.3738,AT,Austria,Vienna,37.252.190.222
