latitude,longitude,Country Code,Country,City,IP Address
49.4423,11.0191,DE,Germany,Nuremberg,152.53.22.28
39.018,-77.539,US,United States,Ashburn,150.136.127.40
48.1951,16.3483,AT,Austria,Vienna,89.58.16.139
51.4808,0.174675,GB,United Kingdom,Erith,57.128.188.88
25.8119,-80.2318,US,United States,Miami,45.77.164.36
50.4777,12.3649,DE,Germany,Falkenstein,49.12.150.240
50.7012,3.21501,FR,France,Wattrelos,162.19.85.200
48.5734,7.75211,FR,France,Strasbourg,91.134.22.62
