latitude,longitude,Country Code,Country,City,IP Address
39.0438,-77.4874,US,United States,Ashburn,3.91.91.237
43.6547,-79.3623,CA,Canada,Toronto,159.203.6.120
52.352,4.9392,NL,The Netherlands,Amsterdam,84.32.186.15
48.1951,16.3483,AT,Austria,Vienna,89.58.16.139
51.5074,-0.1196,GB,United Kingdom,London,198.244.253.243
50.7012,3.21501,FR,France,Wattrelos,162.19.37.247
