latitude,longitude,Country Code,Country,City,IP Address
48.1951,16.3483,AT,Austria,Vienna,89.58.16.139
48.5734,7.75211,FR,France,Strasbourg,91.134.22.6
49.4527,11.0783,DE,Germany,Nuremberg,88.198.36.237
39.0438,-77.4874,US,United States,Ashburn,3.91.91.237
51.5123,-0.0909,GB,United Kingdom,London,67.209.52.73
