latitude,longitude,Country Code,Country,City,IP Address
51.4808,0.174675,GB,United Kingdom,Erith,57.128.188.88
51.5074,-0.1196,GB,United Kingdom,London,198.244.253.241
50.3986,8.07958,DE,Germany,Limburg an der Lahn,141.95.124.216
39.0438,-77.4874,US,United States,Ashburn,3.239.38.16
43.6547,-79.3623,CA,Canada,Toronto,159.203.0.182
37.5665,126.978,KR,South Korea,Seoul,52.79.171.57
48.2906,16.3441,AT,Austria,Klosterneuburg,185.119.118.68
