latitude,longitude,Country Code,Country,City,IP Address
51.4808,0.174675,GB,United Kingdom,Erith,57.128.188.88
39.018,-77.539,US,United States,Ashburn,150.136.127.40
25.8119,-80.2318,US,United States,Miami,45.77.164.36
40.0992,-83.1141,US,United States,Dublin,3.132.241.37
48.2082,16.3738,AT,Austria,Vienna,37.252.190.222
32.8771,-80.013,US,United States,North Charleston,35.185.91.239
48.1951,16.3483,AT,Austria,Vienna,89.58.16.139
38.9071,-77.0368,US,United States,Washington,34.86.160.44
