latitude,longitude,Country Code,Country,City,IP Address
39.018,-77.539,US,United States,Ashburn,150.136.127.40
39.0438,-77.4874,US,United States,Ashburn,44.197.172.154
37.3931,-121.962,US,United States,Santa Clara,64.227.110.67
48.5734,7.75211,FR,France,Strasbourg,91.134.22.62
25.8119,-80.2318,US,United States,Miami,45.77.164.36
52.352,4.9392,NL,The Netherlands,Amsterdam,84.32.186.15
