latitude,longitude,Country Code,Country,City,IP Address
39.0438,-77.4874,US,United States,Ashburn,54.196.32.74
48.1951,16.3483,AT,Austria,Vienna,89.58.16.139
49.4423,11.0191,DE,Germany,Nuremberg,152.53.22.28
51.5123,-0.0909,GB,United Kingdom,London,67.209.52.73
49.4527,11.0783,DE,Germany,Nuremberg,88.198.36.237
39.018,-77.539,US,United States,Ashburn,132.145.202.110
43.6547,-79.3623,CA,Canada,Toronto,159.203.6.120
