latitude,longitude,Country Code,Country,City,IP Address
50.3986,8.07958,DE,Germany,Limburg an der Lahn,141.95.124.216
49.4423,11.0191,DE,Germany,Nuremberg,152.53.22.28
51.4808,0.174675,GB,United Kingdom,Erith,57.128.188.88
25.8119,-80.2318,US,United States,Miami,45.77.164.36
1.43508,103.804,SG,Singapore,Singapore,72.46.87.167
50.1109,8.68213,DE,Germany,Frankfurt am Main,52.58.243.225
48.2082,16.3738,AT,Austria,Vienna,37.252.190.222
51.5123,-0.0909,GB,United Kingdom,London,67.209.52.73
