latitude,longitude,Country Code,Country,City,IP Address
43.6547,-79.3623,CA,Canada,Toronto,143.198.46.130
51.5074,-0.1196,GB,United Kingdom,London,198.244.253.243
51.1878,6.8607,DE,Germany,Düsseldorf,84.54.23.48
51.5074,-0.1196,GB,United Kingdom,London,198.244.253.241
40.0992,-83.1141,US,United States,Dublin,3.132.241.37
-23.5335,-46.6359,BR,Brazil,São Paulo,177.54.147.193
50.1109,8.68213,DE,Germany,Frankfurt am Main,52.58.243.225
50.3986,8.07958,DE,Germany,Limburg an der Lahn,141.95.124.216
