latitude,longitude,Country Code,Country,City,IP Address
48.1951,16.3483,AT,Austria,Vienna,89.58.16.139
43.6547,-79.3623,CA,Canada,Toronto,159.203.0.182
50.7012,3.21501,FR,France,Wattrelos,141.94.3.10
39.0438,-77.4874,US,United States,Ashburn,44.197.172.154
50.1109,8.68213,DE,Germany,Frankfurt am Main,52.58.243.225
48.2082,16.3738,AT,Austria,Vienna,37.252.190.222
48.5734,7.75211,FR,France,Strasbourg,162.19.43.18
51.5123,-0.0909,GB,United Kingdom,London,67.209.52.73
