latitude,longitude,Country Code,Country,City,IP Address
43.6547,-79.3623,CA,Canada,Toronto,159.203.6.120
51.4808,0.174675,GB,United Kingdom,Erith,57.128.188.88
25.8119,-80.2318,US,United States,Miami,45.77.164.36
50.7012,3.21501,FR,France,Wattrelos,141.94.3.10
1.43508,103.804,SG,Singapore,Singapore,72.46.87.167
50.7012,3.21501,FR,France,Wattrelos,162.19.85.200
32.8771,-80.013,US,United States,North Charleston,35.185.91.239
39.0438,-77.4874,US,United States,Ashburn,52.0.54.100
