latitude,longitude,Country Code,Country,City,IP Address
52.352,4.9392,NL,The Netherlands,Amsterdam,84.32.186.15
34.0544,-118.2441,US,United States,Los Angeles,84.54.23.48
48.1951,16.3483,AT,Austria,Vienna,89.58.16.139
50.3878,8.07286,DE,Germany,Limburg an der Lahn,141.95.124.216
49.4521,11.0767,DE,Germany,Nuremberg,88.198.36.237
53.3498,-6.26031,IE,Ireland,Dublin,34.244.236.193
39.0438,-77.4874,US,United States,Ashburn,52.0.54.100
50.475,12.365,DE,Germany,Falkenstein,49.12.150.240
48.2082,16.3738,AT,Austria,Vienna,37.252.190.222
