latitude,longitude,Country Code,Country,City,IP Address
51.5123,-0.0909,GB,United Kingdom,London,67.209.52.73
39.018,-77.539,US,United States,Ashburn,150.136.127.40
37.5665,126.978,KR,South Korea,Seoul,52.79.171.57
37.3931,-121.962,US,United States,Santa Clara,64.227.110.67
48.2082,16.3738,AT,Austria,Vienna,37.252.190.222
50.7012,3.21501,FR,France,Wattrelos,162.19.37.247
48.2906,16.3441,AT,Austria,Klosterneuburg,185.119.118.68
48.5734,7.75211,FR,France,Strasbourg,91.134.22.62
39.018,-77.539,US,United States,Ashburn,132.145.202.110
