latitude,longitude,Country Code,Country,City,IP Address
48.5734,7.75211,FR,France,Strasbourg,162.19.43.18
39.018,-77.539,US,United States,Ashburn,150.136.127.40
39.0438,-77.4874,US,United States,Ashburn,3.91.91.237
48.1951,16.3483,AT,Austria,Vienna,89.58.16.139
39.0438,-77.4874,US,United States,Ashburn,52.0.54.100
25.8119,-80.2318,US,United States,Miami,45.77.164.36
50.3986,8.07958,DE,Germany,Limburg an der Lahn,141.95.124.216
49.4423,11.0191,DE,Germany,Nuremberg,152.53.22.28
43.6547,-79.3623,CA,Canada,Toronto,143.198.46.130
