latitude,longitude,Country Code,Country,City,IP Address
51.5123,-0.0909,GB,United Kingdom,London,67.209.52.73
39.0438,-77.4874,US,United States,Ashburn,3.91.91.237
43.6547,-79.3623,CA,Canada,Toronto,143.198.46.130
50.4777,12.3649,DE,Germany,Falkenstein,49.12.150.240
40.8229,-74.4592,US,United States,Cedar Knolls,45.79.149.203
39.018,-77.539,US,United States,Ashburn,132.145.202.110
40.0992,-83.1141,US,United States,Dublin,3.132.241.37
52.352,4.9392,NL,The Netherlands,Amsterdam,84.32.186.15
