latitude,longitude,Country Code,Country,City,IP Address
39.0438,-77.4874,US,United States,Ashburn,3.91.91.237
50.3986,8.07958,DE,Germany,Limburg an der Lahn,141.95.124.216
43.6547,-79.3623,CA,Canada,Toronto,159.203.6.120
32.8771,-80.013,US,United States,North Charleston,35.185.91.239
48.2906,16.3441,AT,Austria,Klosterneuburg,185.119.118.68
50.4777,12.3649,DE,Germany,Falkenstein,49.12.150.240
51.4808,0.174675,GB,United Kingdom,Erith,57.128.188.88
49.4423,11.0191,DE,Germany,Nuremberg,152.53.22.28
43.6547,-79.3623,CA,Canada,Toronto,143.198.46.130
