latitude,longitude,Country Code,Country,City,IP Address
53.3498,-6.26031,IE,Ireland,Dublin,34.244.236.193
48.2906,16.3441,AT,Austria,Klosterneuburg,185.119.118.68
50.7012,3.21501,FR,France,Wattrelos,162.19.37.247
51.5074,-0.1196,GB,United Kingdom,London,198.244.253.60
48.2082,16.3738,AT,Austria,Vienna,37.252.190.222
39.0438,-77.4874,US,United States,Ashburn,54.91.222.127
50.475,12.365,DE,Germany,Falkenstein,49.12.150.240
