latitude,longitude,Country Code,Country,City,IP Address
37.5665,126.978,KR,South Korea,Seoul,52.79.171.57
39.0438,-77.4874,US,United States,Ashburn,54.196.32.74
48.1951,16.3483,AT,Austria,Vienna,89.58.16.139
39.018,-77.539,US,United States,Ashburn,132.145.202.110
51.5074,-0.1196,GB,United Kingdom,London,198.244.253.243
32.8771,-80.013,US,United States,North Charleston,35.185.91.239
39.018,-77.539,US,United States,Ashburn,150.136.127.40
25.8119,-80.2318,US,United States,Miami,45.77.164.36
48.2082,16.3738,AT,Austria,Vienna,37.252.190.222
