latitude,longitude,Country Code,Country,City,IP Address
39.0438,-77.4874,US,United States,Ashburn,52.0.54.100
48.5734,7.75211,FR,France,Strasbourg,162.19.43.18
25.8119,-80.2318,US,United States,Miami,45.77.164.36
39.0438,-77.4874,US,United States,Ashburn,3.91.91.237
48.1951,16.3483,AT,Austria,Vienna,89.58.16.139
48.2906,16.3441,AT,Austria,Klosterneuburg,185.119.118.68
48.2082,16.3738,AT,Austria,Vienna,37.252.190.222
43.6547,-79.3623,CA,Canada,Toronto,143.198.46.130
50.1109,8.68213,DE,Germany,Frankfurt am Main,52.58.243.225
