latitude,longitude,Country Code,Country,City,IP Address
50.3878,8.07286,DE,Germany,Limburg an der Lahn,141.95.124.216
53.3498,-6.26031,IE,Ireland,Dublin,34.244.236.193
39.0438,-77.4874,US,United States,Ashburn,3.91.91.237
50.475,12.365,DE,Germany,Falkenstein,49.12.150.240
51.5074,-0.1196,GB,United Kingdom,London,198.244.253.60
48.1951,16.3483,AT,Austria,Vienna,89.58.16.139
34.0544,-118.2441,US,United States,Los Angeles,84.54.23.48
48.2906,16.3441,AT,Austria,Klosterneuburg,185.119.118.68
40.8229,-74.4592,US,United States,Cedar Knolls,45.79.149.203
