latitude,longitude,Country Code,Country,City,IP Address
48.2906,16.3441,AT,Austria,Klosterneuburg,185.119.118.68
43.6547,-79.3623,CA,Canada,Toronto,159.203.0.182
52.352,4.9392,NL,The Netherlands,Amsterdam,84.32.186.15
50.4777,12.3649,DE,Germany,Falkenstein,49.12.150.240
25.8119,-80.2318,US,United States,Miami,45.77.164.36
50.3986,8.07958,DE,Germany,Limburg an der Lahn,141.95.124.216
48.5734,7.75211,FR,France,Strasbourg,162.19.43.18
51.5074,-0.1196,GB,United Kingdom,London,198.244.253.60
