latitude,longitude,Country Code,Country,City,IP Address
43.6547,-79.3623,CA,Canada,Toronto,159.203.0.182
40.0992,-83.1141,US,United States,Dublin,3.132.241.37
48.1951,16.3483,AT,Austria,Vienna,89.58.16.139
40.8229,-74.4592,US,United States,Cedar Knolls,45.79.149.203
37.5665,126.978,KR,South Korea,Seoul,52.79.171.57
48.5734,7.75211,FR,France,Strasbourg,162.19.43.18
