latitude,longitude,Country Code,Country,City,IP Address
51.5123,-0.0909,GB,United Kingdom,London,67.209.52.73
48.2906,16.3441,AT,Austria,Klosterneuburg,185.119.118.68
48.2082,16.3738,AT,Austria,Vienna,37.252.190.222
37.5665,126.978,KR,South Korea,Seoul,52.79.171.57
51.5074,-0.1196,GB,United Kingdom,London,198.244.253.60
40.8229,-74.4592,US,United States,Cedar Knolls,45.79.149.203
