latitude,longitude,Country Code,Country,City,IP Address
51.5123,-0.0909,GB,United Kingdom,London,67.209.52.73
25.8119,-80.2318,US,United States,Miami,45.77.164.36
50.1109,8.68213,DE,Germany,Frankfurt am Main,52.58.243.225
40.8229,-74.4592,US,United States,Cedar Knolls,45.79.149.203
48.5734,7.75211,FR,France,Strasbourg,162.19.43.18
43.6547,-79.3623,CA,Canada,Toronto,143.198.46.130
48.5734,7.75211,FR,France,Strasbourg,91.134.22.62
