latitude,longitude,Country Code,Country,City,IP Address
50.7012,3.21501,FR,France,Wattrelos,162.19.85.200
37.5665,126.978,KR,South Korea,Seoul,52.79.171.57
41.0416,-73.9572,US,United States,Orangeburg,89.117.78.187
38.9071,-77.0368,US,United States,Washington,34.86.160.44
53.3498,-6.26031,IE,Ireland,Dublin,34.244.236.193
50.1109,8.68213,DE,Germany,Frankfurt am Main,52.58.243.225
50.7012,3.21501,FR,France,Wattrelos,162.19.37.247
