latitude,longitude,Country Code,Country,City,IP Address
50.3878,8.07286,DE,Germany,Limburg an der Lahn,141.95.124.216
51.5123,-0.0909,GB,United Kingdom,London,67.209.52.73
39.0438,-77.4874,US,United States,Ashburn,52.0.54.100
48.8323,2.4075,FR,France,Paris,51.159.137.138
49.4423,11.0191,DE,Germany,Nuremberg,152.53.22.28
48.1951,16.3483,AT,Austria,Vienna,89.58.16.139
51.5074,-0.1196,GB,United Kingdom,London,198.244.253.60
48.2082,16.3738,AT,Austria,Vienna,37.252.190.222
