latitude,longitude,Country Code,Country,City,IP Address
43.6547,-79.3623,CA,Canada,Toronto,159.203.6.120
39.0438,-77.4874,US,United States,Ashburn,3.91.91.237
48.5734,7.75211,FR,France,Strasbourg,162.19.43.18
39.0438,-77.4874,US,United States,Ashburn,52.0.54.100
25.8119,-80.2318,US,United States,Miami,45.77.164.36
39.0438,-77.4874,US,United States,Ashburn,3.239.38.16
50.4777,12.3649,DE,Germany,Falkenstein,49.12.150.240
39.018,-77.539,US,United States,Ashburn,150.136.127.40
