latitude,longitude,Country Code,Country,City,IP Address
50.7012,3.21501,FR,France,Wattrelos,162.19.85.200
41.0416,-73.9572,US,United States,Orangeburg,89.117.78.187
43.6547,-79.3623,CA,Canada,Toronto,143.198.46.130
25.8119,-80.2318,US,United States,Miami,45.77.164.36
43.6547,-79.3623,CA,Canada,Toronto,159.203.6.120
52.352,4.9392,NL,The Netherlands,Amsterdam,84.32.186.15
32.8771,-80.013,US,United States,North Charleston,35.185.91.239
51.5123,-0.0909,GB,United Kingdom,London,67.209.52.73
1.43508,103.804,SG,Singapore,Singapore,72.46.87.185
