latitude,longitude,Country Code,Country,City,IP Address
39.0438,-77.4874,US,United States,Ashburn,3.239.38.16
48.1951,16.3483,AT,Austria,Vienna,89.58.16.139
39.018,-77.539,US,United States,Ashburn,150.136.127.40
51.5074,-0.1196,GB,United Kingdom,London,198.244.253.243
50.3986,8.07958,DE,Germany,Limburg an der Lahn,141.95.124.216
39.0438,-77.4874,US,United States,Ashburn,54.91.222.127
48.5734,7.75211,FR,France,Strasbourg,162.19.43.18
51.5123,-0.0909,GB,United Kingdom,London,67.209.52.73
50.4777,12.3649,DE,Germany,Falkenstein,49.12.150.240
