latitude,longitude,Country Code,Country,City,IP Address
43.6547,-79.3623,CA,Canada,Toronto,143.198.46.130
37.5665,126.978,KR,South Korea,Seoul,52.79.171.57
51.5123,-0.0909,GB,United Kingdom,London,67.209.52.73
1.43508,103.804,SG,Singapore,Singapore,72.46.87.185
43.6547,-79.3623,CA,Canada,Toronto,159.203.6.120
51.5074,-0.1196,GB,United Kingdom,London,198.244.253.241
52.352,4.9392,NL,The Netherlands,Amsterdam,84.32.186.15
37.3931,-121.962,US,United States,Santa Clara,64.227.110.67
