latitude,longitude,Country Code,Country,City,IP Address
50.3986,8.07958,DE,Germany,Limburg an der Lahn,141.95.124.216
43.6547,-79.3623,CA,Canada,Toronto,159.203.6.120
39.0438,-77.4874,US,United States,Ashburn,3.91.91.237
49.4423,11.0191,DE,Germany,Nuremberg,152.53.22.28
48.1951,16.3483,AT,Austria,Vienna,89.58.16.139
50.4777,12.3649,DE,Germany,Falkenstein,49.12.150.240
37.3931,-121.962,US,United States,Santa Clara,64.227.110.67
50.7012,3.21501,FR,France,Wattrelos,162.19.85.200
48.5734,7.75211,FR,France,Strasbourg,162.19.43.18
