latitude,longitude,Country Code,Country,City,IP Address
52.352,4.9392,NL,The Netherlands,Amsterdam,84.32.186.15
40.8229,-74.4592,US,United States,Cedar Knolls,45.79.149.203
32.8771,-80.013,US,United States,North Charleston,35.185.91.239
1.43508,103.804,SG,Singapore,Singapore,72.46.87.167
43.6547,-79.3623,CA,Canada,Toronto,159.203.6.120
