latitude,longitude,Country Code,Country,City,IP Address
43.6547,-79.3623,CA,Canada,Toronto,159.203.6.120
39.0438,-77.4874,US,United States,Ashburn,54.196.32.74
48.1951,16.3483,AT,Austria,Vienna,89.58.16.139
50.4777,12.3649,DE,Germany,Falkenstein,49.12.150.240
40.8229,-74.4592,US,United States,Cedar Knolls,45.79.149.203
38.9071,-77.0368,US,United States,Washington,34.86.160.44
51.5074,-0.1196,GB,United Kingdom,London,198.244.253.241
43.6547,-79.3623,CA,Canada,Toronto,159.203.0.182
