latitude,longitude,Country Code,Country,City,IP Address
51.5123,-0.0909,GB,United Kingdom,London,67.209.52.73
48.2906,16.3441,AT,Austria,Klosterneuburg,185.119.118.68
48.1951,16.3483,AT,Austria,Vienna,89.58.16.139
25.8119,-80.2318,US,United States,Miami,45.77.164.36
39.018,-77.539,US,United States,Ashburn,150.136.127.40
50.4777,12.3649,DE,Germany,Falkenstein,49.12.150.240
50.1109,8.68213,DE,Germany,Frankfurt am Main,52.58.243.225
50.3986,8.07958,DE,Germany,Limburg an der Lahn,141.95.124.216
