latitude,longitude,Country Code,Country,City,IP Address
48.1951,16.3483,AT,Austria,Vienna,89.58.16.139
50.3986,8.07958,DE,Germany,Limburg an der Lahn,141.95.124.216
39.018,-77.539,US,United States,Ashburn,129.213.156.73
37.3931,-121.962,US,United States,Santa Clara,64.227.110.67
43.6547,-79.3623,CA,Canada,Toronto,159.203.0.182
25.8119,-80.2318,US,United States,Miami,45.77.164.36
39.0438,-77.4874,US,United States,Ashburn,3.91.91.237
51.4808,0.174675,GB,United Kingdom,Erith,57.128.188.88
39.0438,-77.4874,US,United States,Ashburn,54.196.32.74
