latitude,longitude,Country Code,Country,City,IP Address
48.5734,7.75211,FR,France,Strasbourg,91.134.22.62
48.1951,16.3483,AT,Austria,Vienna,89.58.16.139
39.018,-77.539,US,United States,Ashburn,150.136.127.40
39.0438,-77.4874,US,United States,Ashburn,54.91.222.127
43.6547,-79.3623,CA,Canada,Toronto,159.203.0.182
50.7012,3.21501,FR,France,Wattrelos,162.19.37.247
