latitude,longitude,Country Code,Country,City,IP Address
50.4777,12.3649,DE,Germany,Falkenstein,49.12.150.240
25.8119,-80.2318,US,United States,Miami,45.77.164.36
39.0438,-77.4874,US,United States,Ashburn,3.91.91.237
39.0438,-77.4874,US,United States,Ashburn,44.197.172.154
49.4423,11.0191,DE,Germany,Nuremberg,152.53.22.28
48.1951,16.3483,AT,Austria,Vienna,89.58.16.139
