latitude,longitude,Country Code,Country,City,IP Address
39.0438,-77.4874,US,United States,Ashburn,3.91.91.237
48.2906,16.3441,AT,Austria,Klosterneuburg,185.119.118.68
49.4423,11.0191,DE,Germany,Nuremberg,152.53.22.28
48.1951,16.3483,AT,Austria,Vienna,89.58.16.139
50.475,12.365,DE,Germany,Falkenstein,49.12.150.240
