latitude,longitude,Country Code,Country,City,IP Address
39.018,-77.539,US,United States,Ashburn,150.136.127.40
48.2906,16.3441,AT,Austria,Klosterneuburg,185.119.118.68
43.6547,-79.3623,CA,Canada,Toronto,143.198.46.130
43.6547,-79.3623,CA,Canada,Toronto,159.203.0.182
48.5734,7.75211,FR,France,Strasbourg,162.19.43.18
49.4423,11.0191,DE,Germany,Nuremberg,152.53.22.28
25.8119,-80.2318,US,United States,Miami,45.77.164.36
40.8229,-74.4592,US,United States,Cedar Knolls,45.79.149.203
