latitude,longitude,Country Code,Country,City,IP Address
1.43508,103.804,SG,Singapore,Singapore,72.46.87.185
37.5665,126.978,KR,South Korea,Seoul,52.79.171.57
43.6547,-79.3623,CA,Canada,Toronto,159.203.6.120
39.0438,-77.4874,US,United States,Ashburn,54.196.32.74
49.4423,11.0191,DE,Germany,Nuremberg,152.53.22.28
25.8119,-80.2318,US,United States,Miami,45.77.164.36
51.5074,-0.1196,GB,United Kingdom,London,198.244.253.241
32.8771,-80.013,US,United States,North Charleston,35.185.91.239
