latitude,longitude,Country Code,Country,City,IP Address
39.0438,-77.4874,US,United States,Ashburn,3.239.38.16
40.0992,-83.1141,US,United States,Dublin,3.132.241.37
49.4527,11.0783,DE,Germany,Nuremberg,88.198.36.237
43.6547,-79.3623,CA,Canada,Toronto,143.198.46.130
43.6547,-79.3623,CA,Canada,Toronto,159.203.6.120
48.2082,16.3738,AT,Austria,Vienna,37.252.190.222
