latitude,longitude,Country Code,Country,City,IP Address
48.1951,16.3483,AT,Austria,Vienna,89.58.16.139
40.0992,-83.1141,US,United States,Dublin,3.132.241.37
48.2906,16.3441,AT,Austria,Klosterneuburg,185.119.118.68
43.6547,-79.3623,CA,Canada,Toronto,143.198.46.130
51.5123,-0.0909,GB,United Kingdom,London,67.209.52.73
