latitude,longitude,Country Code,Country,City,IP Address
39.0438,-77.4874,US,United States,Ashburn,52.0.54.100
51.1878,6.8607,DE,Germany,Düsseldorf,84.54.23.48
48.2906,16.3441,AT,Austria,Klosterneuburg,185.119.118.68
-23.5335,-46.6359,BR,Brazil,São Paulo,177.54.147.193
43.6547,-79.3623,CA,Canada,Toronto,143.198.46.130
51.5074,-0.1196,GB,United Kingdom,London,198.244.253.243
50.3986,8.07958,DE,Germany,Limburg an der Lahn,141.95.124.216
48.5734,7.75211,FR,France,Strasbourg,91.134.22.62
39.0438,-77.4874,US,United States,Ashburn,54.91.222.127
