latitude,longitude,Country Code,Country,City,IP Address
43.6547,-79.3623,CA,Canada,Toronto,159.203.0.182
32.8771,-80.013,US,United States,North Charleston,35.185.91.239
39.018,-77.539,US,United States,Ashburn,132.145.202.110
40.0992,-83.1141,US,United States,Dublin,3.132.241.37
37.3931,-121.962,US,United States,Santa Clara,64.227.110.67
50.1109,8.68213,DE,Germany,Frankfurt am Main,52.58.243.225
39.0438,-77.4874,US,United States,Ashburn,54.196.32.74
