latitude,longitude,Country Code,Country,City,IP Address
48.2906,16.3441,AT,Austria,Klosterneuburg,185.119.118.68
41.0416,-73.9572,US,United States,Orangeburg,89.117.78.187
48.1951,16.3483,AT,Austria,Vienna,89.58.16.139
25.8119,-80.2318,US,United States,Miami,45.77.164.36
43.6547,-79.3623,CA,Canada,Toronto,159.203.6.120
52.352,4.9392,NL,The Netherlands,Amsterdam,84.32.186.15
49.4527,11.0783,DE,Germany,Nuremberg,88.198.36.237
39.0438,-77.4874,US,United States,Ashburn,3.91.91.237
32.8771,-80.013,US,United States,North Charleston,35.185.91.239
