latitude,longitude,Country Code,Country,City,IP Address
39.0438,-77.4874,US,United States,Ashburn,3.91.91.237
39.0438,-77.4874,US,United States,Ashburn,52.0.54.100
43.6547,-79.3623,CA,Canada,Toronto,143.198.46.130
25.8119,-80.2318,US,United States,Miami,45.77.164.36
48.2906,16.3441,AT,Austria,Klosterneuburg,185.119.118.68
39.0438,-77.4874,US,United States,Ashburn,3.239.38.16
40.0992,-83.1141,US,United States,Dublin,3.132.241.37
48.5734,7.75211,FR,France,Strasbourg,91.134.22.62
52.352,4.9392,NL,The Netherlands,Amsterdam,84.32.186.15
