latitude,longitude,Country Code,Country,City,IP Address
39.0438,-77.4874,US,United States,Ashburn,54.196.32.74
51.4808,0.174675,GB,United Kingdom,Erith,57.128.188.88
1.43508,103.804,SG,Singapore,Singapore,72.46.87.185
50.1109,8.68213,DE,Germany,Frankfurt am Main,52.58.243.225
43.6547,-79.3623,CA,Canada,Toronto,159.203.6.120
48.2906,16.3441,AT,Austria,Klosterneuburg,185.119.118.68
48.1951,16.3483,AT,Austria,Vienna,89.58.16.139
25.8119,-80.2318,US,United States,Miami,45.77.164.36
49.4423,11.0191,DE,Germany,Nuremberg,152.53.22.28
