latitude,longitude,Country Code,Country,City,IP Address
49.4423,11.0191,DE,Germany,Nuremberg,152.53.22.28
43.6547,-79.3623,CA,Canada,Toronto,159.203.6.120
48.2906,16.3441,AT,Austria,Klosterneuburg,185.119.118.68
50.1109,8.68213,DE,Germany,Frankfurt am Main,52.58.243.225
50.7012,3.21501,FR,France,Wattrelos,162.19.85.200
37.3931,-121.962,US,United States,Santa Clara,64.227.110.67
48.2082,16.3738,AT,Austria,Vienna,37.252.190.222
