latitude,longitude,Country Code,Country,City,IP Address
39.0438,-77.4874,US,United States,Ashburn,44.197.172.154
39.0438,-77.4874,US,United States,Ashburn,3.91.91.237
37.5665,126.978,KR,South Korea,Seoul,52.79.171.57
39.018,-77.539,US,United States,Ashburn,150.136.127.40
51.4808,0.174675,GB,United Kingdom,Erith,57.128.188.88
39.0438,-77.4874,US,United States,Ashburn,54.196.32.74
1.43508,103.804,SG,Singapore,Singapore,72.46.87.167
51.5074,-0.1196,GB,United Kingdom,London,198.244.253.241
40.0992,-83.1141,US,United States,Dublin,3.132.241.37
