latitude,longitude,Country Code,Country,City,IP Address
39.0438,-77.4874,US,United States,Ashburn,3.91.91.237
37.5665,126.978,KR,South Korea,Seoul,52.79.171.57
50.3986,8.07958,DE,Germany,Limburg an der Lahn,141.95.124.216
32.8771,-80.013,US,United States,North Charleston,35.185.91.239
37.3931,-121.962,US,United States,Santa Clara,64.227.110.67
48.5734,7.75211,FR,France,Strasbourg,162.19.43.18
40.0992,-83.1141,US,United States,Dublin,3.132.241.37
49.4527,11.0783,DE,Germany,Nuremberg,88.198.36.237
