latitude,longitude,Country Code,Country,City,IP Address
48.1951,16.3483,AT,Austria,Vienna,89.58.16.139
39.0438,-77.4874,US,United States,Ashburn,3.239.38.16
50.475,12.365,DE,Germany,Falkenstein,49.12.150.240
53.3498,-6.26031,IE,Ireland,Dublin,34.244.236.193
48.5734,7.75211,FR,France,Strasbourg,162.19.43.18
43.6547,-79.3623,CA,Canada,Toronto,159.203.6.120
39.0438,-77.4874,US,United States,Ashburn,3.91.91.237
25.8119,-80.2318,US,United States,Miami,45.77.164.36
