latitude,longitude,Country Code,Country,City,IP Address
51.4808,0.174675,GB,United Kingdom,Erith,57.128.188.88
41.0416,-73.9572,US,United States,Orangeburg,89.117.78.187
39.018,-77.539,US,United States,Ashburn,150.136.127.40
1.43508,103.804,SG,Singapore,Singapore,72.46.87.167
53.3498,-6.26031,IE,Ireland,Dublin,34.244.236.193
50.3986,8.07958,DE,Germany,Limburg an der Lahn,141.95.124.216
