latitude,longitude,Country Code,Country,City,IP Address
39.0438,-77.4874,US,United States,Ashburn,3.239.38.16
51.5074,-0.1196,GB,United Kingdom,London,198.244.253.243
51.4808,0.174675,GB,United Kingdom,Erith,57.128.188.88
48.5734,7.75211,FR,France,Strasbourg,91.134.22.62
48.5734,7.75211,FR,France,Strasbourg,162.19.43.18
25.8119,-80.2318,US,United States,Miami,45.77.164.36
39.018,-77.539,US,United States,Ashburn,150.136.127.40
