latitude,longitude,Country Code,Country,City,IP Address
39.0438,-77.4874,US,United States,Ashburn,52.0.54.100
39.0438,-77.4874,US,United States,Ashburn,54.91.222.127
53.3498,-6.26031,IE,Ireland,Dublin,34.244.236.193
50.7012,3.21501,FR,France,Wattrelos,162.19.37.247
51.5123,-0.0909,GB,United Kingdom,London,67.209.52.73
49.4521,11.0767,DE,Germany,Nuremberg,88.198.36.237
48.8323,2.4075,FR,France,Paris,51.159.137.138
49.4423,11.0191,DE,Germany,Nuremberg,152.53.22.28
40.8229,-74.4592,US,United States,Cedar Knolls,45.79.149.203
