latitude,longitude,Country Code,Country,City,IP Address
39.018,-77.539,US,United States,Ashburn,150.136.127.40
43.6547,-79.3623,CA,Canada,Toronto,143.198.46.130
48.1951,16.3483,AT,Austria,Vienna,89.58.16.139
51.5123,-0.0909,GB,United Kingdom,London,67.209.52.73
48.2906,16.3441,AT,Austria,Klosterneuburg,185.119.118.68
51.4808,0.174675,GB,United Kingdom,Erith,57.128.188.88
51.5074,-0.1196,GB,United Kingdom,London,198.244.253.241
