latitude,longitude,Country Code,Country,City,IP Address
48.1951,16.3483,AT,Austria,Vienna,89.58.16.139
43.6547,-79.3623,CA,Canada,Toronto,143.198.46.130
37.5665,126.978,KR,South Korea,Seoul,52.79.171.57
39.0438,-77.4874,US,United States,Ashburn,3.91.91.237
43.6547,-79.3623,CA,Canada,Toronto,159.203.6.120
53.3498,-6.26031,IE,Ireland,Dublin,34.244.236.193
