latitude,longitude,Country Code,Country,City,IP Address
50.1109,8.68213,DE,Germany,Frankfurt am Main,52.58.243.225
51.5123,-0.0909,GB,United Kingdom,London,67.209.52.73
48.5734,7.75211,FR,France,Strasbourg,162.19.43.18
50.7012,3.21501,FR,France,Wattrelos,141.94.3.10
25.8119,-80.2318,US,United States,Miami,45.77.164.36
48.2082,16.3738,AT,Austria,Vienna,37.252.190.222
50.7012,3.21501,FR,France,Wattrelos,162.19.85.200
