latitude,longitude,Country Code,Country,City,IP Address
39.0438,-77.4874,US,United States,Ashburn,54.196.32.74
43.6547,-79.3623,CA,Canada,Toronto,159.203.6.120
25.8119,-80.2318,US,United States,Miami,45.77.164.36
37.3931,-121.962,US,United States,Santa Clara,64.227.110.67
48.5734,7.75211,FR,France,Strasbourg,91.134.22.62
