latitude,longitude,Country Code,Country,City,IP Address
52.352,4.9392,NL,The Netherlands,Amsterdam,84.32.186.15
34.0544,-118.2441,US,United States,Los Angeles,84.54.23.48
49.4423,11.0191,DE,Germany,Nuremberg,152.53.22.28
48.2082,16.3738,AT,Austria,Vienna,37.252.190.222
51.5123,-0.0909,GB,United Kingdom,London,67.209.52.73
39.0438,-77.4874,US,United States,Ashburn,54.91.222.127
48.8323,2.4075,FR,France,Paris,51.159.137.138
53.3498,-6.26031,IE,Ireland,Dublin,34.244.236.193
