latitude,longitude,Country Code,Country,City,IP Address
48.5734,7.75211,FR,France,Strasbourg,162.19.43.18
49.4423,11.0191,DE,Germany,Nuremberg,152.53.22.28
39.0438,-77.4874,US,United States,Ashburn,52.0.54.100
43.6547,-79.3623,CA,Canada,Toronto,159.203.6.120
48.2906,16.3441,AT,Austria,Klosterneuburg,185.119.118.68
37.5665,126.978,KR,South Korea,Seoul,52.79.171.57
51.5074,-0.1196,GB,United Kingdom,London,198.244.253.241
51.5074,-0.1196,GB,United Kingdom,London,198.244.253.243
50.1109,8.68213,DE,Germany,Frankfurt am Main,52.58.243.225
