latitude,longitude,Country Code,Country,City,IP Address
39.0438,-77.4874,US,United States,Ashburn,3.91.91.237
50.1109,8.68213,DE,Germany,Frankfurt am Main,52.58.243.225
32.8771,-80.013,US,United States,North Charleston,35.185.91.239
52.352,4.9392,NL,The Netherlands,Amsterdam,84.32.186.15
48.8323,2.4075,FR,France,Paris,51.159.137.138
39.018,-77.539,US,United States,Ashburn,150.136.127.40
50.7012,3.21501,FR,France,Wattrelos,162.19.85.200
40.0992,-83.1141,US,United States,Dublin,3.132.241.37
