latitude,longitude,Country Code,Country,City,IP Address
48.5734,7.75211,FR,France,Strasbourg,91.134.22.62
39.0438,-77.4874,US,United States,Ashburn,3.239.38.16
52.352,4.9392,NL,The Netherlands,Amsterdam,84.32.186.15
48.2906,16.3441,AT,Austria,Klosterneuburg,185.119.118.68
50.1109,8.68213,DE,Germany,Frankfurt am Main,52.58.243.225
