latitude,longitude,Country Code,Country,City,IP Address
25.8119,-80.2318,US,United States,Miami,45.77.164.36
39.0438,-77.4874,US,United States,Ashburn,3.91.91.237
51.5074,-0.1196,GB,United Kingdom,London,198.244.253.243
43.6547,-79.3623,CA,Canada,Toronto,143.198.46.130
38.9071,-77.0368,US,United States,Washington,34.86.160.44
48.5734,7.75211,FR,France,Strasbourg,162.19.43.18
39.018,-77.539,US,United States,Ashburn,132.145.202.110
51.5074,-0.1196,GB,United Kingdom,London,198.244.253.241
