latitude,longitude,Country Code,Country,City,IP Address
39.0438,-77.4874,US,United States,Ashburn,3.91.91.237
51.5123,-0.0909,GB,United Kingdom,London,67.209.52.73
48.2082,16.3738,AT,Austria,Vienna,37.252.190.222
49.4521,11.0767,DE,Germany,Nuremberg,88.198.36.237
53.3498,-6.26031,IE,Ireland,Dublin,34.244.236.193
