latitude,longitude,Country Code,Country,City,IP Address
48.1951,16.3483,AT,Austria,Vienna,89.58.16.139
43.6547,-79.3623,CA,Canada,Toronto,159.203.0.182
39.0438,-77.4874,US,United States,Ashburn,3.91.91.237
49.4423,11.0191,DE,Germany,Nuremberg,152.53.22.28
51.5074,-0.1196,GB,United Kingdom,London,198.244.253.243
39.0438,-77.4874,US,United States,Ashburn,54.91.222.127
51.5123,-0.0909,GB,United Kingdom,London,67.209.52.73
40.8229,-74.4592,US,United States,Cedar Knolls,45.79.149.203
