latitude,longitude,Country Code,Country,City,IP Address
43.6547,-79.3623,CA,Canada,Toronto,159.203.6.120
1.43508,103.804,SG,Singapore,Singapore,72.46.87.185
32.8771,-80.013,US,United States,North Charleston,35.185.91.239
39.018,-77.539,US,United States,Ashburn,132.145.202.110
38.9071,-77.0368,US,United States,Washington,34.86.160.44
37.5665,126.978,KR,South Korea,Seoul,52.79.171.57
52.352,4.9392,NL,The Netherlands,Amsterdam,84.32.186.15
