latitude,longitude,Country Code,Country,City,IP Address
50.7012,3.21501,FR,France,Wattrelos,162.19.85.200
50.1109,8.68213,DE,Germany,Frankfurt am Main,52.58.243.225
51.5074,-0.1196,GB,United Kingdom,London,198.244.253.241
39.0438,-77.4874,US,United States,Ashburn,54.196.32.74
43.6547,-79.3623,CA,Canada,Toronto,143.198.46.130
50.7012,3.21501,FR,France,Wattrelos,141.94.3.10
39.018,-77.539,US,United States,Ashburn,132.145.202.110
25.8119,-80.2318,US,United States,Miami,45.77.164.36
40.8229,-74.4592,US,United States,Cedar Knolls,45.79.149.203
