latitude,longitude,Country Code,Country,City,IP Address
39.0438,-77.4874,US,United States,Ashburn,3.91.91.237
50.3986,8.07958,DE,Germany,Limburg an der Lahn,141.95.124.216
48.1951,16.3483,AT,Austria,Vienna,89.58.16.139
-23.5335,-46.6359,BR,Brazil,São Paulo,177.54.147.193
51.1878,6.8607,DE,Germany,Düsseldorf,84.54.23.48
53.3498,-6.26031,IE,Ireland,Dublin,34.244.236.193
50.475,12.365,DE,Germany,Falkenstein,49.12.150.240
51.5074,-0.1196,GB,United Kingdom,London,198.244.253.60
