latitude,longitude,Country Code,Country,City,IP Address
39.0438,-77.4874,US,United States,Ashburn,54.196.32.74
49.4423,11.0191,DE,Germany,Nuremberg,152.53.22.28
39.0438,-77.4874,US,United States,Ashburn,3.91.91.237
48.5734,7.75211,FR,France,Strasbourg,91.134.22.62
48.2082,16.3738,AT,Austria,Vienna,37.252.190.222
1.43508,103.804,SG,Singapore,Singapore,72.46.87.167
49.4527,11.0783,DE,Germany,Nuremberg,88.198.36.237
