latitude,longitude,Country Code,Country,City,IP Address
50.3986,8.07958,DE,Germany,Limburg an der Lahn,141.95.124.216
39.0438,-77.4874,US,United States,Ashburn,3.239.38.16
48.5734,7.75211,FR,France,Strasbourg,162.19.43.18
53.3498,-6.26031,IE,Ireland,Dublin,34.244.236.193
52.352,4.9392,NL,The Netherlands,Amsterdam,84.32.186.15
40.8229,-74.4592,US,United States,Cedar Knolls,45.79.149.203
48.2082,16.3738,AT,Austria,Vienna,37.252.190.222
