latitude,longitude,Country Code,Country,City,IP Address
39.0438,-77.4874,US,United States,Ashburn,3.91.91.237
52.352,4.9392,NL,The Netherlands,Amsterdam,84.32.186.15
48.2906,16.3441,AT,Austria,Klosterneuburg,185.119.118.68
37.5665,126.978,KR,South Korea,Seoul,52.79.171.57
53.3498,-6.26031,IE,Ireland,Dublin,34.244.236.193
49.4521,11.0767,DE,Germany,Nuremberg,88.198.36.237
34.0544,-118.2441,US,United States,Los Angeles,84.54.23.48
51.5074,-0.1196,GB,United Kingdom,London,198.244.253.60
