latitude,longitude,Country Code,Country,City,IP Address
50.3986,8.07958,DE,Germany,Limburg an der Lahn,141.95.124.216
51.5123,-0.0909,GB,United Kingdom,London,67.209.52.73
49.4423,11.0191,DE,Germany,Nuremberg,152.53.22.28
32.8771,-80.013,US,United States,North Charleston,35.185.91.239
41.0416,-73.9572,US,United States,Orangeburg,89.117.78.187
