latitude,longitude,Country Code,Country,City,IP Address
39.0438,-77.4874,US,United States,Ashburn,3.91.91.237
51.5123,-0.0909,GB,United Kingdom,London,67.209.52.73
50.3986,8.07958,DE,Germany,Limburg an der Lahn,141.95.124.216
52.352,4.9392,NL,The Netherlands,Amsterdam,84.32.186.15
48.8323,2.4075,FR,France,Paris,51.159.137.138
49.4423,11.0191,DE,Germany,Nuremberg,152.53.22.28
50.475,12.365,DE,Germany,Falkenstein,49.12.150.240
