latitude,longitude,Country Code,Country,City,IP Address
37.5665,126.978,KR,South Korea,Seoul,52.79.171.57
43.6547,-79.3623,CA,Canada,Toronto,159.203.0.182
50.3986,8.07958,DE,Germany,Limburg an der Lahn,141.95.124.216
51.4808,0.174675,GB,United Kingdom,Erith,57.128.188.88
48.5734,7.75211,FR,France,Strasbourg,162.19.43.18
52.352,4.9392,NL,The Netherlands,Amsterdam,84.32.186.15
32.8771,-80.013,US,United States,North Charleston,35.185.91.239
50.4777,12.3649,DE,Germany,Falkenstein,49.12.150.240
