latitude,longitude,Country Code,Country,City,IP Address
48.2906,16.3441,AT,Austria,Klosterneuburg,185.119.118.68
25.8119,-80.2318,US,United States,Miami,45.77.164.36
39.018,-77.539,US,United States,Ashburn,150.136.127.40
37.3931,-121.962,US,United States,Santa Clara,64.227.110.67
43.6547,-79.3623,CA,Canada,Toronto,159.203.0.182
43.6547,-79.3623,CA,Canada,Toronto,159.203.6.120
