latitude,longitude,Country Code,Country,City,IP Address
51.4808,0.174675,GB,United Kingdom,Erith,57.128.188.88
39.018,-77.539,US,United States,Ashburn,132.145.202.110
39.0438,-77.4874,US,United States,Ashburn,3.91.91.237
39.018,-77.539,US,United States,Ashburn,150.136.127.40
40.0992,-83.1141,US,United States,Dublin,3.132.241.37
53.3498,-6.26031,IE,Ireland,Dublin,34.244.236.193
48.5734,7.75211,FR,France,Strasbourg,162.19.43.18
50.4777,12.3649,DE,Germany,Falkenstein,49.12.150.240
