latitude,longitude,Country Code,Country,City,IP Address
39.018,-77.539,US,United States,Ashburn,150.136.127.40
32.8771,-80.013,US,United States,North Charleston,35.185.91.239
48.1951,16.3483,AT,Austria,Vienna,89.58.16.139
43.6547,-79.3623,CA,Canada,Toronto,159.203.6.120
39.0438,-77.4874,US,United States,Ashburn,54.196.32.74
51.5123,-0.0909,GB,United Kingdom,London,67.209.52.73
48.2906,16.3441,AT,Austria,Klosterneuburg,185.119.118.68
43.6547,-79.3623,CA,Canada,Toronto,159.203.0.182
