latitude,longitude,Country Code,Country,City,IP Address
50.3986,8.07958,DE,Germany,Limburg an der Lahn,141.95.124.216
48.5734,7.75211,FR,France,Strasbourg,91.134.22.62
49.4527,11.0783,DE,Germany,Nuremberg,88.198.36.237
39.0438,-77.4874,US,United States,Ashburn,3.239.38.16
48.2906,16.3441,AT,Austria,Klosterneuburg,185.119.118.68
52.352,4.9392,NL,The Netherlands,Amsterdam,84.32.186.15
39.018,-77.539,US,United States,Ashburn,150.136.127.40
