latitude,longitude,Country Code,Country,City,IP Address
32.8771,-80.013,US,United States,North Charleston,35.185.91.239
39.0438,-77.4874,US,United States,Ashburn,54.196.32.74
50.3986,8.07958,DE,Germany,Limburg an der Lahn,141.95.124.216
50.1109,8.68213,DE,Germany,Frankfurt am Main,52.58.243.225
43.6547,-79.3623,CA,Canada,Toronto,143.198.46.130
50.7012,3.21501,FR,France,Wattrelos,162.19.85.200
39.0438,-77.4874,US,United States,Ashburn,3.239.38.16
50.4777,12.3649,DE,Germany,Falkenstein,49.12.150.240
39.018,-77.539,US,United States,Ashburn,132.145.202.110
