latitude,longitude,Country Code,Country,City,IP Address
48.2906,16.3441,AT,Austria,Klosterneuburg,185.119.118.68
49.4521,11.0767,DE,Germany,Nuremberg,88.198.36.237
48.1951,16.3483,AT,Austria,Vienna,89.58.16.139
50.475,12.365,DE,Germany,Falkenstein,49.12.150.240
34.0544,-118.2441,US,United States,Los Angeles,84.54.23.48
50.3878,8.07286,DE,Germany,Limburg an der Lahn,141.95.124.216
37.5665,126.978,KR,South Korea,Seoul,52.79.171.57
50.7012,3.21501,FR,France,Wattrelos,162.19.37.247
52.352,4.9392,NL,The Netherlands,Amsterdam,84.32.186.15
