latitude,longitude,Country Code,Country,City,IP Address
32.8771,-80.013,US,United States,North Charleston,35.185.91.239
37.5665,126.978,KR,South Korea,Seoul,52.79.171.57
39.018,-77.539,US,United States,Ashburn,150.136.127.40
50.7012,3.21501,FR,France,Wattrelos,141.94.3.10
48.5734,7.75211,FR,France,Strasbourg,91.134.22.62
53.3498,-6.26031,IE,Ireland,Dublin,34.244.236.193
