latitude,longitude,Country Code,Country,City,IP Address
39.0438,-77.4874,US,United States,Ashburn,44.197.172.154
32.8771,-80.013,US,United States,North Charleston,35.185.91.239
25.8119,-80.2318,US,United States,Miami,45.77.164.36
48.5734,7.75211,FR,France,Strasbourg,91.134.22.62
39.0438,-77.4874,US,United States,Ashburn,3.239.38.16
43.6547,-79.3623,CA,Canada,Toronto,143.198.46.130
48.2082,16.3738,AT,Austria,Vienna,37.252.190.222
50.1109,8.68213,DE,Germany,Frankfurt am Main,52.58.243.225
50.3986,8.07958,DE,Germany,Limburg an der Lahn,141.95.124.216
