latitude,longitude,Country Code,Country,City,IP Address
50.3878,8.07286,DE,Germany,Limburg an der Lahn,141.95.124.216
37.5665,126.978,KR,South Korea,Seoul,52.79.171.57
34.0544,-118.2441,US,United States,Los Angeles,84.54.23.48
49.4521,11.0767,DE,Germany,Nuremberg,88.198.36.237
50.475,12.365,DE,Germany,Falkenstein,49.12.150.240
51.5074,-0.1196,GB,United Kingdom,London,198.244.253.60
48.1951,16.3483,AT,Austria,Vienna,89.58.16.139
