latitude,longitude,Country Code,Country,City,IP Address
39.0438,-77.4874,US,United States,Ashburn,44.197.172.154
50.3986,8.07958,DE,Germany,Limburg an der Lahn,141.95.124.216
39.0438,-77.4874,US,United States,Ashburn,3.91.91.237
50.7012,3.21501,FR,France,Wattrelos,141.94.3.10
43.6547,-79.3623,CA,Canada,Toronto,159.203.0.182
51.5123,-0.0909,GB,United Kingdom,London,67.209.52.73
51.5074,-0.1196,GB,United Kingdom,London,198.244.253.60
