latitude,longitude,Country Code,Country,City,IP Address
51.5123,-0.0909,GB,United Kingdom,London,67.209.52.73
48.1951,16.3483,AT,Austria,Vienna,89.58.16.139
50.7012,3.21501,FR,France,Wattrelos,162.19.37.247
48.2082,16.3738,AT,Austria,Vienna,37.252.190.222
49.4423,11.0191,DE,Germany,Nuremberg,152.53.22.28
50.3878,8.07286,DE,Germany,Limburg an der Lahn,141.95.124.216
48.2906,16.3441,AT,Austria,Klosterneuburg,185.119.118.68
53.3498,-6.26031,IE,Ireland,Dublin,34.244.236.193
