latitude,longitude,Country Code,Country,City,IP Address
50.3878,8.07286,DE,Germany,Limburg an der Lahn,141.95.124.216
39.0438,-77.4874,US,United States,Ashburn,52.0.54.100
39.0438,-77.4874,US,United States,Ashburn,54.91.222.127
51.5074,-0.1196,GB,United Kingdom,London,198.244.253.60
48.8323,2.4075,FR,France,Paris,51.159.137.138
40.8229,-74.4592,US,United States,Cedar Knolls,45.79.149.203
