latitude,longitude,Country Code,Country,City,IP Address
37.5665,126.978,KR,South Korea,Seoul,52.79.171.57
39.018,-77.539,US,United States,Ashburn,150.136.127.40
25.8119,-80.2318,US,United States,Miami,45.77.164.36
51.5074,-0.1196,GB,United Kingdom,London,198.244.253.243
50.1109,8.68213,DE,Germany,Frankfurt am Main,52.58.243.225
52.352,4.9392,NL,The Netherlands,Amsterdam,84.32.186.15
43.6547,-79.3623,CA,Canada,Toronto,159.203.0.182
