latitude,longitude,Country Code,Country,City,IP Address
51.5123,-0.0909,GB,United Kingdom,London,67.209.52.73
43.6547,-79.3623,CA,Canada,Toronto,143.198.46.130
48.2082,16.3738,AT,Austria,Vienna,37.252.190.222
39.018,-77.539,US,United States,Ashburn,150.136.127.40
48.8323,2.4075,FR,France,Paris,51.159.137.138
48.5734,7.75211,FR,France,Strasbourg,162.19.43.18
53.3498,-6.26031,IE,Ireland,Dublin,34.244.236.193
39.0438,-77.4874,US,United States,Ashburn,3.91.91.237
