latitude,longitude,Country Code,Country,City,IP Address
43.6547,-79.3623,CA,Canada,Toronto,143.198.46.130
37.5665,126.978,KR,South Korea,Seoul,52.79.171.57
50.1109,8.68213,DE,Germany,Frankfurt am Main,52.58.243.225
39.0438,-77.4874,US,United States,Ashburn,3.239.38.16
40.8229,-74.4592,US,United States,Cedar Knolls,45.79.149.203
38.9071,-77.0368,US,United States,Washington,34.86.160.44
39.0438,-77.4874,US,United States,Ashburn,52.0.54.100
52.352,4.9392,NL,The Netherlands,Amsterdam,84.32.186.15
37.3931,-121.962,US,United States,Santa Clara,64.227.110.67
