latitude,longitude,Country Code,Country,City,IP Address
48.2906,16.3441,AT,Austria,Klosterneuburg,185.119.118.68
50.3986,8.07958,DE,Germany,Limburg an der Lahn,141.95.124.216
39.0438,-77.4874,US,United States,Ashburn,3.91.91.237
48.1951,16.3483,AT,Austria,Vienna,89.58.16.139
49.4423,11.0191,DE,Germany,Nuremberg,152.53.22.28
39.0438,-77.4874,US,United States,Ashburn,52.0.54.100
50.7012,3.21501,FR,France,Wattrelos,162.19.37.247
53.3498,-6.26031,IE,Ireland,Dublin,34.244.236.193
