latitude,longitude,Country Code,Country,City,IP Address
39.0438,-77.4874,US,United States,Ashburn,54.196.32.74
39.018,-77.539,US,United States,Ashburn,150.136.127.40
37.5665,126.978,KR,South Korea,Seoul,52.79.171.57
48.1951,16.3483,AT,Austria,Vienna,89.58.16.139
50.3986,8.07958,DE,Germany,Limburg an der Lahn,141.95.124.216
51.4808,0.174675,GB,United Kingdom,Erith,57.128.188.88
50.7012,3.21501,FR,France,Wattrelos,162.19.37.247
