latitude,longitude,Country Code,Country,City,IP Address
25.8119,-80.2318,US,United States,Miami,45.77.164.36
48.5734,7.75211,FR,France,Strasbourg,162.19.43.18
39.0438,-77.4874,US,United States,Ashburn,52.0.54.100
43.6547,-79.3623,CA,Canada,Toronto,159.203.0.182
49.4423,11.0191,DE,Germany,Nuremberg,152.53.22.28
37.5665,126.978,KR,South Korea,Seoul,52.79.171.57
50.7012,3.21501,FR,France,Wattrelos,162.19.37.247
38.9071,-77.0368,US,United States,Washington,34.86.160.44
