latitude,longitude,Country Code,Country,City,IP Address
43.6547,-79.3623,CA,Canada,Toronto,159.203.0.182
48.5734,7.75211,FR,France,Strasbourg,162.19.43.18
49.4423,11.0191,DE,Germany,Nuremberg,152.53.22.28
48.2906,16.3441,AT,Austria,Klosterneuburg,185.119.118.68
43.6547,-79.3623,CA,Canada,Toronto,159.203.6.120
32.8771,-80.013,US,United States,North Charleston,35.185.91.239
43.6547,-79.3623,CA,Canada,Toronto,143.198.46.130
39.018,-77.539,US,United States,Ashburn,150.136.127.40
50.3986,8.07958,DE,Germany,Limburg an der Lahn,141.95.124.216
