latitude,longitude,Country Code,Country,City,IP Address
50.7012,3.21501,FR,France,Wattrelos,141.94.3.10
39.018,-77.539,US,United States,Ashburn,150.136.127.40
48.1951,16.3483,AT,Austria,Vienna,89.58.16.139
39.018,-77.539,US,United States,Ashburn,129.213.156.73
48.5734,7.75211,FR,France,Strasbourg,162.19.43.18
49.4423,11.0191,DE,Germany,Nuremberg,152.53.22.28
1.43508,103.804,SG,Singapore,Singapore,72.46.87.185
