latitude,longitude,Country Code,Country,City,IP Address
50.3986,8.07958,DE,Germany,Limburg an der Lahn,141.95.124.216
39.0438,-77.4874,US,United States,Ashburn,3.91.91.237
52.352,4.9392,NL,The Netherlands,Amsterdam,84.32.186.15
48.8323,2.4075,FR,France,Paris,51.159.137.138
48.2906,16.3441,AT,Austria,Klosterneuburg,185.119.118.68
51.5074,-0.1196,GB,United Kingdom,London,198.244.253.60
