latitude,longitude,Country Code,Country,City,IP Address
43.6547,-79.3623,CA,Canada,Toronto,159.203.6.120
51.4808,0.174675,GB,United Kingdom,Erith,57.128.188.88
43.6547,-79.3623,CA,Canada,Toronto,143.198.46.130
51.5123,-0.0909,GB,United Kingdom,London,67.209.52.73
39.0438,-77.4874,US,United States,Ashburn,3.239.38.16
40.0992,-83.1141,US,United States,Dublin,3.132.241.37
25.8119,-80.2318,US,United States,Miami,45.77.164.36
