latitude,longitude,Country Code,Country,City,IP Address
50.3986,8.07958,DE,Germany,Limburg an der Lahn,141.95.124.216
32.8771,-80.013,US,United States,North Charleston,35.185.91.239
39.0438,-77.4874,US,United States,Ashburn,54.91.222.127
50.4777,12.3649,DE,Germany,Falkenstein,49.12.150.240
37.5665,126.978,KR,South Korea,Seoul,52.79.171.57
48.5734,7.75211,FR,France,Strasbourg,162.19.43.18
39.0438,-77.4874,US,United States,Ashburn,3.91.91.237
39.0438,-77.4874,US,United States,Ashburn,52.0.54.100
51.5074,-0.1196,GB,United Kingdom,London,198.244.253.60
