latitude,longitude,Country Code,Country,City,IP Address
48.5734,7.75211,FR,France,Strasbourg,91.134.22.62
39.0438,-77.4874,US,United States,Ashburn,3.91.91.237
32.8771,-80.013,US,United States,North Charleston,35.185.91.239
48.8323,2.4075,FR,France,Paris,51.159.137.138
51.5074,-0.1196,GB,United Kingdom,London,198.244.253.241
49.4527,11.0783,DE,Germany,Nuremberg,88.198.36.237
52.352,4.9392,NL,The Netherlands,Amsterdam,84.32.186.15
39.018,-77.539,US,United States,Ashburn,150.136.127.40
