latitude,longitude,Country Code,Country,City,IP Address
37.5665,126.978,KR,South Korea,Seoul,52.79.171.57
51.5123,-0.0909,GB,United Kingdom,London,67.209.52.73
32.8771,-80.013,US,United States,North Charleston,35.185.91.239
39.0438,-77.4874,US,United States,Ashburn,54.91.222.127
39.0438,-77.4874,US,United States,Ashburn,3.91.91.237
50.1109,8.68213,DE,Germany,Frankfurt am Main,52.58.243.225
51.5074,-0.1196,GB,United Kingdom,London,198.244.253.243
48.2906,16.3441,AT,Austria,Klosterneuburg,185.119.118.68
1.43508,103.804,SG,Singapore,Singapore,72.46.87.185
