latitude,longitude,Country Code,Country,City,IP Address
32.8771,-80.013,US,United States,North Charleston,35.185.91.239
39.0438,-77.4874,US,United States,Ashburn,3.91.91.237
39.0438,-77.4874,US,United States,Ashburn,54.196.32.74
39.0438,-77.4874,US,United States,Ashburn,54.91.222.127
52.352,4.9392,NL,The Netherlands,Amsterdam,84.32.186.15
43.6547,-79.3623,CA,Canada,Toronto,159.203.6.120
41.0416,-73.9572,US,United States,Orangeburg,89.117.78.187
