latitude,longitude,Country Code,Country,City,IP Address
37.5665,126.978,KR,South Korea,Seoul,52.79.171.57
40.0992,-83.1141,US,United States,Dublin,3.132.241.37
32.8771,-80.013,US,United States,North Charleston,35.185.91.239
25.8119,-80.2318,US,United States,Miami,45.77.164.36
48.5734,7.75211,FR,France,Strasbourg,91.134.22.62
50.1109,8.68213,DE,Germany,Frankfurt am Main,52.58.243.225
