latitude,longitude,Country Code,Country,City,IP Address
48.5734,7.75211,FR,France,Strasbourg,91.134.22.62
32.8771,-80.013,US,United States,North Charleston,35.185.91.239
50.1109,8.68213,DE,Germany,Frankfurt am Main,52.58.243.225
51.5123,-0.0909,GB,United Kingdom,London,67.209.52.73
40.8229,-74.4592,US,United States,Cedar Knolls,45.79.149.203
52.352,4.9392,NL,The Netherlands,Amsterdam,84.32.186.15
39.0438,-77.4874,US,United States,Ashburn,3.91.91.237
48.5734,7.75211,FR,France,Strasbourg,162.19.43.18
