latitude,longitude,Country Code,Country,City,IP Address
43.6547,-79.3623,CA,Canada,Toronto,143.198.46.130
39.018,-77.539,US,United States,Ashburn,150.136.127.40
51.5074,-0.1196,GB,United Kingdom,London,198.244.253.241
49.4527,11.0783,DE,Germany,Nuremberg,88.198.36.237
43.6547,-79.3623,CA,Canada,Toronto,159.203.0.182
1.43508,103.804,SG,Singapore,Singapore,72.46.87.185
39.0438,-77.4874,US,United States,Ashburn,3.239.38.16
