latitude,longitude,Country Code,Country,City,IP Address
43.6547,-79.3623,CA,Canada,Toronto,159.203.6.120
39.0438,-77.4874,US,United States,Ashburn,3.91.91.237
50.1109,8.68213,DE,Germany,Frankfurt am Main,52.58.243.225
50.7012,3.21501,FR,France,Wattrelos,162.19.85.200
40.0992,-83.1141,US,United States,Dublin,3.132.241.37
25.8119,-80.2318,US,United States,Miami,45.77.164.36
37.5665,126.978,KR,South Korea,Seoul,52.79.171.57
50.4777,12.3649,DE,Germany,Falkenstein,49.12.150.240
39.018,-77.539,US,United States,Ashburn,132.145.202.110
