latitude,longitude,Country Code,Country,City,IP Address
49.4423,11.0191,DE,Germany,Nuremberg,152.53.22.28
43.6547,-79.3623,CA,Canada,Toronto,159.203.6.120
48.5734,7.75211,FR,France,Strasbourg,162.19.43.18
38.9071,-77.0368,US,United States,Washington,34.86.160.44
39.018,-77.539,US,United States,Ashburn,129.213.156.73
1.43508,103.804,SG,Singapore,Singapore,72.46.87.185
48.2082,16.3738,AT,Austria,Vienna,37.252.190.222
25.8119,-80.2318,US,United States,Miami,45.77.164.36
