latitude,longitude,Country Code,Country,City,IP Address
37.5665,126.978,KR,South Korea,Seoul,52.79.171.57
52.352,4.9392,NL,The Netherlands,Amsterdam,84.32.186.15
50.475,12.365,DE,Germany,Falkenstein,49.12.150.240
50.3878,8.07286,DE,Germany,Limburg an der Lahn,141.95.124.216
51.5074,-0.1196,GB,United Kingdom,London,198.244.253.60
