latitude,longitude,Country Code,Country,City,IP Address
40.0992,-83.1141,US,United States,Dublin,3.132.241.37
25.8119,-80.2318,US,United States,Miami,45.77.164.36
48.2082,16.3738,AT,Austria,Vienna,37.252.190.222
50.1109,8.68213,DE,Germany,Frankfurt am Main,52.58.243.225
40.8229,-74.4592,US,United States,Cedar Knolls,45.79.149.203
