latitude,longitude,Country Code,Country,City,IP Address
48.1951,16.3483,AT,Austria,Vienna,89.58.16.139
52.352,4.9392,NL,The Netherlands,Amsterdam,84.32.186.15
39.0438,-77.4874,US,United States,Ashburn,52.0.54.100
50.3878,8.07286,DE,Germany,Limburg an der Lahn,141.95.124.216
51.5074,-0.1196,GB,United Kingdom,London,198.244.253.60
48.2082,16.3738,AT,Austria,Vienna,37.252.190.222
39.0438,-77.4874,US,United States,Ashburn,54.91.222.127
