latitude,longitude,Country Code,Country,City,IP Address
51.4808,0.174675,GB,United Kingdom,Erith,57.128.188.88
37.5665,126.978,KR,South Korea,Seoul,52.79.171.57
52.352,4.9392,NL,The Netherlands,Amsterdam,84.32.186.15
37.3931,-121.962,US,United States,Santa Clara,64.227.110.67
49.4527,11.0783,DE,Germany,Nuremberg,88.198.36.237
