latitude,longitude,Country Code,Country,City,IP Address
41.0416,-73.9572,US,United States,Orangeburg,89.117.78.187
39.018,-77.539,US,United States,Ashburn,150.136.127.40
43.6547,-79.3623,CA,Canada,Toronto,159.203.0.182
37.5665,126.978,KR,South Korea,Seoul,52.79.171.57
32.8771,-80.013,US,United States,North Charleston,35.185.91.239
48.2906,16.3441,AT,Austria,Klosterneuburg,185.119.118.68
39.018,-77.539,US,United States,Ashburn,132.145.202.110
40.8229,-74.4592,US,United States,Cedar Knolls,45.79.149.203
51.5074,-0.1196,GB,United Kingdom,London,198.244.253.241
