latitude,longitude,Country Code,Country,City,IP Address
50.1109,8.68213,DE,Germany,Frankfurt am Main,52.58.243.225
51.4808,0.174675,GB,United Kingdom,Erith,57.128.188.88
40.0992,-83.1141,US,United States,Dublin,3.132.241.37
41.0416,-73.9572,US,United States,Orangeburg,89.117.78.187
39.0438,-77.4874,US,United States,Ashburn,52.0.54.100
39.0438,-77.4874,US,United States,Ashburn,3.239.38.16
50.4777,12.3649,DE,Germany,Falkenstein,49.12.150.240
