latitude,longitude,Country Code,Country,City,IP Address
-23.5335,-46.6359,BR,Brazil,São Paulo,177.54.147.193
25.8119,-80.2318,US,United States,Miami,45.77.164.36
39.0438,-77.4874,US,United States,Ashburn,44.197.172.154
1.43508,103.804,SG,Singapore,Singapore,72.46.87.167
51.1878,6.8607,DE,Germany,Düsseldorf,84.54.23.48
39.0438,-77.4874,US,United States,Ashburn,3.239.38.16
51.5074,-0.1196,GB,United Kingdom,London,198.244.253.60
41.0416,-73.9572,US,United States,Orangeburg,89.117.78.187
50.7012,3.21501,FR,France,Wattrelos,162.19.37.247
