latitude,longitude,Country Code,Country,City,IP Address
49.4423,11.0191,DE,Germany,Nuremberg,152.53.22.28
50.4777,12.3649,DE,Germany,Falkenstein,49.12.150.240
48.5734,7.75211,FR,France,Strasbourg,91.134.22.6
50.7012,3.21501,FR,France,Wattrelos,141.94.3.10
51.5074,-0.1196,GB,United Kingdom,London,198.244.253.60
