latitude,longitude,Country Code,Country,City,IP Address
39.0438,-77.4874,US,United States,Ashburn,52.0.54.100
50.3878,8.07286,DE,Germany,Limburg an der Lahn,141.95.124.216
49.4521,11.0767,DE,Germany,Nuremberg,88.198.36.237
48.2082,16.3738,AT,Austria,Vienna,37.252.190.222
48.8323,2.4075,FR,France,Paris,51.159.137.138
48.1951,16.3483,AT,Austria,Vienna,89.58.16.139
