latitude,longitude,Country Code,Country,City,IP Address
41.0416,-73.9572,US,United States,Orangeburg,89.117.78.187
50.7012,3.21501,FR,France,Wattrelos,162.19.85.200
51.5074,-0.1196,GB,United Kingdom,London,198.244.253.60
38.9071,-77.0368,US,United States,Washington,34.86.160.44
1.43508,103.804,SG,Singapore,Singapore,72.46.87.185
43.6547,-79.3623,CA,Canada,Toronto,159.203.6.120
48.5734,7.75211,FR,France,Strasbourg,162.19.43.18
48.2082,16.3738,AT,Austria,Vienna,37.252.190.222
