latitude,longitude,Country Code,Country,City,IP Address
39.0438,-77.4874,US,United States,Ashburn,44.197.172.154
50.7012,3.21501,FR,France,Wattrelos,162.19.85.200
49.4527,11.0783,DE,Germany,Nuremberg,88.198.36.237
39.018,-77.539,US,United States,Ashburn,150.136.127.40
48.5734,7.75211,FR,France,Strasbourg,91.134.22.62
51.5074,-0.1196,GB,United Kingdom,London,198.244.253.243
32.8771,-80.013,US,United States,North Charleston,35.185.91.239
39.018,-77.539,US,United States,Ashburn,129.213.156.73
