latitude,longitude,Country Code,Country,City,IP Address
51.1878,6.8607,DE,Germany,Düsseldorf,84.54.23.48
48.5734,7.75211,FR,France,Strasbourg,91.134.22.62
48.1951,16.3483,AT,Austria,Vienna,89.58.16.139
40.0992,-83.1141,US,United States,Dublin,3.132.241.37
50.1109,8.68213,DE,Germany,Frankfurt am Main,52.58.243.225
43.6547,-79.3623,CA,Canada,Toronto,143.198.46.130
48.2906,16.3441,AT,Austria,Klosterneuburg,185.119.118.68
-23.5335,-46.6359,BR,Brazil,São Paulo,177.54.147.193
51.5123,-0.0909,GB,United Kingdom,London,67.209.52.73
