latitude,longitude,Country Code,Country,City,IP Address
50.1109,8.68213,DE,Germany,Frankfurt am Main,52.58.243.225
39.0438,-77.4874,US,United States,Ashburn,54.196.32.74
50.3986,8.07958,DE,Germany,Limburg an der Lahn,141.95.124.216
48.8323,2.4075,FR,France,Paris,51.159.137.138
39.0438,-77.4874,US,United States,Ashburn,3.91.91.237
41.0416,-73.9572,US,United States,Orangeburg,89.117.78.187
