latitude,longitude,Country Code,Country,City,IP Address
39.0438,-77.4874,US,United States,Ashburn,3.239.38.16
43.6547,-79.3623,CA,Canada,Toronto,159.203.0.182
39.0438,-77.4874,US,United States,Ashburn,52.0.54.100
53.3498,-6.26031,IE,Ireland,Dublin,34.244.236.193
51.5123,-0.0909,GB,United Kingdom,London,67.209.52.73
50.7012,3.21501,FR,France,Wattrelos,162.19.37.247
