latitude,longitude,Country Code,Country,City,IP Address
50.1109,8.68213,DE,Germany,Frankfurt am Main,52.58.243.225
51.4808,0.174675,GB,United Kingdom,Erith,57.128.188.88
48.1951,16.3483,AT,Austria,Vienna,89.58.16.139
39.0438,-77.4874,US,United States,Ashburn,3.91.91.237
43.6547,-79.3623,CA,Canada,Toronto,143.198.46.130
50.7012,3.21501,FR,France,Wattrelos,162.19.37.247
32.8771,-80.013,US,United States,North Charleston,35.185.91.239
50.4777,12.3649,DE,Germany,Falkenstein,49.12.150.240
