latitude,longitude,Country Code,Country,City,IP Address
48.2906,16.3441,AT,Austria,Klosterneuburg,185.119.118.68
51.5074,-0.1196,GB,United Kingdom,London,198.244.253.243
51.4808,0.174675,GB,United Kingdom,Erith,57.128.188.88
39.018,-77.539,US,United States,Ashburn,150.136.127.40
37.3931,-121.962,US,United States,Santa Clara,64.227.110.67
50.1109,8.68213,DE,Germany,Frankfurt am Main,52.58.243.225
