latitude,longitude,Country Code,Country,City,IP Address
48.1951,16.3483,AT,Austria,Vienna,89.58.16.139
48.5734,7.75211,FR,France,Strasbourg,162.19.43.18
48.5734,7.75211,FR,France,Strasbourg,91.134.22.62
50.1109,8.68213,DE,Germany,Frankfurt am Main,52.58.243.225
39.018,-77.539,US,United States,Ashburn,150.136.127.40
50.3986,8.07958,DE,Germany,Limburg an der Lahn,141.95.124.216
