latitude,longitude,Country Code,Country,City,IP Address
50.1109,8.68213,DE,Germany,Frankfurt am Main,52.58.243.225
40.0992,-83.1141,US,United States,Dublin,3.132.241.37
51.4808,0.174675,GB,United Kingdom,Erith,57.128.188.88
43.6547,-79.3623,CA,Canada,Toronto,143.198.46.130
52.352,4.9392,NL,The Netherlands,Amsterdam,84.32.186.15
39.018,-77.539,US,United States,Ashburn,129.213.156.73
1.43508,103.804,SG,Singapore,Singapore,72.46.87.167
50.3986,8.07958,DE,Germany,Limburg an der Lahn,141.95.124.216
43.6547,-79.3623,CA,Canada,Toronto,159.203.0.182
