latitude,longitude,Country Code,Country,City,IP Address
51.4808,0.174675,GB,United Kingdom,Erith,57.128.188.88
50.3986,8.07958,DE,Germany,Limburg an der Lahn,141.95.124.216
50.7012,3.21501,FR,France,Wattrelos,162.19.85.200
49.4527,11.0783,DE,Germany,Nuremberg,88.198.36.237
51.5074,-0.1196,GB,United Kingdom,London,198.244.253.241
