latitude,longitude,Country Code,Country,City,IP Address
50.1109,8.68213,DE,Germany,Frankfurt am Main,52.58.243.225
41.0416,-73.9572,US,United States,Orangeburg,89.117.78.187
32.8771,-80.013,US,United States,North Charleston,35.185.91.239
51.5123,-0.0909,GB,United Kingdom,London,67.209.52.73
48.2906,16.3441,AT,Austria,Klosterneuburg,185.119.118.68
