latitude,longitude,Country Code,Country,City,IP Address
49.4423,11.0191,DE,Germany,Nuremberg,152.53.22.28
32.8771,-80.013,US,United States,North Charleston,35.185.91.239
39.0438,-77.4874,US,United States,Ashburn,3.91.91.237
50.1109,8.68213,DE,Germany,Frankfurt am Main,52.58.243.225
53.3498,-6.26031,IE,Ireland,Dublin,34.244.236.193
40.8229,-74.4592,US,United States,Cedar Knolls,45.79.149.203
1.43508,103.804,SG,Singapore,Singapore,72.46.87.185
