latitude,longitude,Country Code,Country,City,IP Address
39.0438,-77.4874,US,United States,Ashburn,3.91.91.237
43.6547,-79.3623,CA,Canada,Toronto,143.198.46.130
48.5734,7.75211,FR,France,Strasbourg,162.19.43.18
-23.5335,-46.6359,BR,Brazil,São Paulo,177.54.147.193
52.352,4.9392,NL,The Netherlands,Amsterdam,84.32.186.15
49.4527,11.0783,DE,Germany,Nuremberg,88.198.36.237
50.1109,8.68213,DE,Germany,Frankfurt am Main,52.58.243.225
51.1878,6.8607,DE,Germany,Düsseldorf,84.54.23.48
51.5074,-0.1196,GB,United Kingdom,London,198.244.253.243
