latitude,longitude,Country Code,Country,City,IP Address
25.8119,-80.2318,US,United States,Miami,45.77.164.36
49.4423,11.0191,DE,Germany,Nuremberg,152.53.22.28
40.0992,-83.1141,US,United States,Dublin,3.132.241.37
48.5734,7.75211,FR,France,Strasbourg,91.134.22.62
39.018,-77.539,US,United States,Ashburn,150.136.127.40
48.2906,16.3441,AT,Austria,Klosterneuburg,185.119.118.68
