latitude,longitude,Country Code,Country,City,IP Address
48.1951,16.3483,AT,Austria,Vienna,89.58.16.139
40.0992,-83.1141,US,United States,Dublin,3.132.241.37
43.6547,-79.3623,CA,Canada,Toronto,159.203.0.182
37.5665,126.978,KR,South Korea,Seoul,52.79.171.57
50.4777,12.3649,DE,Germany,Falkenstein,49.12.150.240
