latitude,longitude,Country Code,Country,City,IP Address
51.5123,-0.0909,GB,United Kingdom,London,67.209.52.73
32.8771,-80.013,US,United States,North Charleston,35.185.91.239
50.3986,8.07958,DE,Germany,Limburg an der Lahn,141.95.124.216
43.6547,-79.3623,CA,Canada,Toronto,159.203.0.182
43.6547,-79.3623,CA,Canada,Toronto,159.203.6.120
37.5665,126.978,KR,South Korea,Seoul,52.79.171.57
