latitude,longitude,Country Code,Country,City,IP Address
43.6547,-79.3623,CA,Canada,Toronto,159.203.6.120
25.8119,-80.2318,US,United States,Miami,45.77.164.36
32.8771,-80.013,US,United States,North Charleston,35.185.91.239
50.1109,8.68213,DE,Germany,Frankfurt am Main,52.58.243.225
37.3931,-121.962,US,United States,Santa Clara,64.227.110.67
48.5734,7.75211,FR,France,Strasbourg,162.19.43.18
52.352,4.9392,NL,The Netherlands,Amsterdam,84.32.186.15
