latitude,longitude,Country Code,Country,City,IP Address
49.4423,11.0191,DE,Germany,Nuremberg,152.53.22.28
43.6547,-79.3623,CA,Canada,Toronto,159.203.6.120
51.4808,0.174675,GB,United Kingdom,Erith,57.128.188.88
43.6547,-79.3623,CA,Canada,Toronto,159.203.0.182
50.7012,3.21501,FR,France,Wattrelos,141.94.3.10
43.6547,-79.3623,CA,Canada,Toronto,143.198.46.130
39.0438,-77.4874,US,United States,Ashburn,52.0.54.100
50.3986,8.07958,DE,Germany,Limburg an der Lahn,141.95.124.216
