latitude,longitude,Country Code,Country,City,IP Address
25.8119,-80.2318,US,United States,Miami,45.77.164.36
43.6547,-79.3623,CA,Canada,Toronto,143.198.46.130
49.4423,11.0191,DE,Germany,Nuremberg,152.53.22.28
40.8229,-74.4592,US,United States,Cedar Knolls,45.79.149.203
43.6547,-79.3623,CA,Canada,Toronto,159.203.0.182
50.7012,3.21501,FR,France,Wattrelos,141.94.3.10
