latitude,longitude,Country Code,Country,City,IP Address
39.0438,-77.4874,US,United States,Ashburn,3.91.91.237
50.3878,8.07286,DE,Germany,Limburg an der Lahn,141.95.124.216
48.2082,16.3738,AT,Austria,Vienna,37.252.190.222
50.7012,3.21501,FR,France,Wattrelos,162.19.37.247
34.0544,-118.2441,US,United States,Los Angeles,84.54.23.48
48.1951,16.3483,AT,Austria,Vienna,89.58.16.139
53.3498,-6.26031,IE,Ireland,Dublin,34.244.236.193
