latitude,longitude,Country Code,Country,City,IP Address
50.7012,3.21501,FR,France,Wattrelos,162.19.85.200
39.0438,-77.4874,US,United States,Ashburn,44.197.172.154
48.1951,16.3483,AT,Austria,Vienna,89.58.16.139
41.0416,-73.9572,US,United States,Orangeburg,89.117.78.187
40.8229,-74.4592,US,United States,Cedar Knolls,45.79.149.203
