latitude,longitude,Country Code,Country,City,IP Address
51.4808,0.174675,GB,United Kingdom,Erith,57.128.188.88
32.8771,-80.013,US,United States,North Charleston,35.185.91.239
48.2906,16.3441,AT,Austria,Klosterneuburg,185.119.118.68
53.3498,-6.26031,IE,Ireland,Dublin,34.244.236.193
51.5074,-0.1196,GB,United Kingdom,London,198.244.253.243
