latitude,longitude,Country Code,Country,City,IP Address
51.5074,-0.1196,GB,United Kingdom,London,198.244.253.241
49.4423,11.0191,DE,Germany,Nuremberg,152.53.22.28
50.4777,12.3649,DE,Germany,Falkenstein,49.12.150.240
50.7012,3.21501,FR,France,Wattrelos,141.94.3.10
39.018,-77.539,US,United States,Ashburn,129.213.156.73
50.1109,8.68213,DE,Germany,Frankfurt am Main,52.58.243.225
