latitude,longitude,Country Code,Country,City,IP Address
40.0992,-83.1141,US,United States,Dublin,3.132.241.37
48.1951,16.3483,AT,Austria,Vienna,89.58.16.139
49.4423,11.0191,DE,Germany,Nuremberg,152.53.22.28
39.0438,-77.4874,US,United States,Ashburn,54.91.222.127
50.475,12.365,DE,Germany,Falkenstein,49.12.150.240
49.4521,11.0767,DE,Germany,Nuremberg,88.198.36.237
