latitude,longitude,Country Code,Country,City,IP Address
51.4808,0.174675,GB,United Kingdom,Erith,57.128.188.88
50.3986,8.07958,DE,Germany,Limburg an der Lahn,141.95.124.216
39.018,-77.539,US,United States,Ashburn,129.213.156.73
48.5734,7.75211,FR,France,Strasbourg,91.134.22.6
50.7012,3.21501,FR,France,Wattrelos,162.19.85.200
52.352,4.9392,NL,The Netherlands,Amsterdam,84.32.186.15
48.5734,7.75211,FR,France,Strasbourg,162.19.43.18
39.0438,-77.4874,US,United States,Ashburn,44.197.172.154
39.0438,-77.4874,US,United States,Ashburn,52.0.54.100
