latitude,longitude,Country Code,Country,City,IP Address
39.0438,-77.4874,US,United States,Ashburn,3.91.91.237
50.3986,8.07958,DE,Germany,Limburg an der Lahn,141.95.124.216
48.5734,7.75211,FR,France,Strasbourg,162.19.43.18
25.8119,-80.2318,US,United States,Miami,45.77.164.36
43.6547,-79.3623,CA,Canada,Toronto,159.203.0.182
43.6547,-79.3623,CA,Canada,Toronto,143.198.46.130
43.6547,-79.3623,CA,Canada,Toronto,159.203.6.120
50.7012,3.21501,FR,France,Wattrelos,162.19.37.247
40.0992,-83.1141,US,United States,Dublin,3.132.241.37
