latitude,longitude,Country Code,Country,City,IP Address
48.5734,7.75211,FR,France,Strasbourg,91.134.22.62
48.2906,16.3441,AT,Austria,Klosterneuburg,185.119.118.68
50.3986,8.07958,DE,Germany,Limburg an der Lahn,141.95.124.216
43.6547,-79.3623,CA,Canada,Toronto,159.203.0.182
50.7012,3.21501,FR,France,Wattrelos,162.19.37.247
