latitude,longitude,Country Code,Country,City,IP Address
41.0416,-73.9572,US,United States,Orangeburg,89.117.78.187
1.43508,103.804,SG,Singapore,Singapore,72.46.87.185
51.5074,-0.1196,GB,United Kingdom,London,198.244.253.243
50.4777,12.3649,DE,Germany,Falkenstein,49.12.150.240
39.0438,-77.4874,US,United States,Ashburn,52.0.54.100
