latitude,longitude,Country Code,Country,City,IP Address
25.8119,-80.2318,US,United States,Miami,45.77.164.36
51.4808,0.174675,GB,United Kingdom,Erith,57.128.188.88
39.0438,-77.4874,US,United States,Ashburn,44.197.172.154
52.352,4.9392,NL,The Netherlands,Amsterdam,84.32.186.15
1.43508,103.804,SG,Singapore,Singapore,72.46.87.185
50.1109,8.68213,DE,Germany,Frankfurt am Main,52.58.243.225
48.2906,16.3441,AT,Austria,Klosterneuburg,185.119.118.68
