latitude,longitude,Country Code,Country,City,IP Address
39.0438,-77.4874,US,United States,Ashburn,3.239.38.16
48.5734,7.75211,FR,France,Strasbourg,162.19.43.18
50.1109,8.68213,DE,Germany,Frankfurt am Main,52.58.243.225
48.1951,16.3483,AT,Austria,Vienna,89.58.16.139
39.0438,-77.4874,US,United States,Ashburn,54.196.32.74
39.0438,-77.4874,US,United States,Ashburn,3.91.91.237
49.4527,11.0783,DE,Germany,Nuremberg,88.198.36.237
51.5074,-0.1196,GB,United Kingdom,London,198.244.253.243
53.3498,-6.26031,IE,Ireland,Dublin,34.244.236.193
