latitude,longitude,Country Code,Country,City,IP Address
49.4423,11.0191,DE,Germany,Nuremberg,152.53.22.28
39.0438,-77.4874,US,United States,Ashburn,3.91.91.237
52.352,4.9392,NL,The Netherlands,Amsterdam,84.32.186.15
48.8323,2.4075,FR,France,Paris,51.159.137.138
50.7012,3.21501,FR,France,Wattrelos,162.19.37.247
48.5734,7.75211,FR,France,Strasbourg,162.19.43.18
51.5074,-0.1196,GB,United Kingdom,London,198.244.253.243
