latitude,longitude,Country Code,Country,City,IP Address
48.1951,16.3483,AT,Austria,Vienna,89.58.16.139
25.8119,-80.2318,US,United States,Miami,45.77.164.36
50.3986,8.07958,DE,Germany,Limburg an der Lahn,141.95.124.216
48.2906,16.3441,AT,Austria,Klosterneuburg,185.119.118.68
51.1878,6.8607,DE,Germany,Düsseldorf,84.54.23.48
-23.5335,-46.6359,BR,Brazil,São Paulo,177.54.147.193
51.5123,-0.0909,GB,United Kingdom,London,67.209.52.73
48.5734,7.75211,FR,France,Strasbourg,91.134.22.62
43.6547,-79.3623,CA,Canada,Toronto,159.203.0.182
