latitude,longitude,Country Code,Country,City,IP Address
48.1951,16.3483,AT,Austria,Vienna,89.58.16.139
48.5734,7.75211,FR,France,Strasbourg,91.134.22.6
43.6547,-79.3623,CA,Canada,Toronto,143.198.46.130
49.4423,11.0191,DE,Germany,Nuremberg,152.53.22.28
40.8229,-74.4592,US,United States,Cedar Knolls,45.79.149.203
