latitude,longitude,Country Code,Country,City,IP Address
48.1951,16.3483,AT,Austria,Vienna,89.58.16.139
39.018,-77.539,US,United States,Ashburn,150.136.127.40
43.6547,-79.3623,CA,Canada,Toronto,159.203.6.120
50.475,12.365,DE,Germany,Falkenstein,49.12.150.240
48.5734,7.75211,FR,France,Strasbourg,162.19.43.18
