latitude,longitude,Country Code,Country,City,IP Address
48.2906,16.3441,AT,Austria,Klosterneuburg,185.119.118.68
39.0438,-77.4874,US,United States,Ashburn,54.196.32.74
32.8771,-80.013,US,United States,North Charleston,35.185.91.239
39.0438,-77.4874,US,United States,Ashburn,3.91.91.237
50.7012,3.21501,FR,France,Wattrelos,162.19.85.200
37.3931,-121.962,US,United States,Santa Clara,64.227.110.67
43.6547,-79.3623,CA,Canada,Toronto,159.203.6.120
