latitude,longitude,Country Code,Country,City,IP Address
39.018,-77.539,US,United States,Ashburn,150.136.127.40
40.0992,-83.1141,US,United States,Dublin,3.132.241.37
50.7012,3.21501,FR,France,Wattrelos,162.19.37.247
51.5123,-0.0909,GB,United Kingdom,London,67.209.52.73
50.3986,8.07958,DE,Germany,Limburg an der Lahn,141.95.124.216
