latitude,longitude,Country Code,Country,City,IP Address
50.3878,8.07286,DE,Germany,Limburg an der Lahn,141.95.124.216
51.5123,-0.0909,GB,United Kingdom,London,67.209.52.73
39.0438,-77.4874,US,United States,Ashburn,3.91.91.237
49.4521,11.0767,DE,Germany,Nuremberg,88.198.36.237
50.475,12.365,DE,Germany,Falkenstein,49.12.150.240
53.3498,-6.26031,IE,Ireland,Dublin,34.244.236.193
39.0438,-77.4874,US,United States,Ashburn,52.0.54.100
50.7012,3.21501,FR,France,Wattrelos,162.19.37.247
