latitude,longitude,Country Code,Country,City,IP Address
50.7012,3.21501,FR,France,Wattrelos,162.19.37.247
49.4423,11.0191,DE,Germany,Nuremberg,152.53.22.28
39.0438,-77.4874,US,United States,Ashburn,3.91.91.237
49.4521,11.0767,DE,Germany,Nuremberg,88.198.36.237
39.0438,-77.4874,US,United States,Ashburn,54.91.222.127
48.2082,16.3738,AT,Austria,Vienna,37.252.190.222
39.0438,-77.4874,US,United States,Ashburn,52.0.54.100
52.352,4.9392,NL,The Netherlands,Amsterdam,84.32.186.15
48.8323,2.4075,FR,France,Paris,51.159.137.138
