latitude,longitude,Country Code,Country,City,IP Address
39.018,-77.539,US,United States,Ashburn,150.136.127.40
39.0438,-77.4874,US,United States,Ashburn,3.239.38.16
48.5734,7.75211,FR,France,Strasbourg,91.134.22.62
37.5665,126.978,KR,South Korea,Seoul,52.79.171.57
48.1951,16.3483,AT,Austria,Vienna,89.58.16.139
52.352,4.9392,NL,The Netherlands,Amsterdam,84.32.186.15
48.2906,16.3441,AT,Austria,Klosterneuburg,185.119.118.68
25.8119,-80.2318,US,United States,Miami,45.77.164.36
