latitude,longitude,Country Code,Country,City,IP Address
39.018,-77.539,US,United States,Ashburn,150.136.127.40
25.8119,-80.2318,US,United States,Miami,45.77.164.36
41.0416,-73.9572,US,United States,Orangeburg,89.117.78.187
39.0438,-77.4874,US,United States,Ashburn,52.0.54.100
1.43508,103.804,SG,Singapore,Singapore,72.46.87.185
50.1109,8.68213,DE,Germany,Frankfurt am Main,52.58.243.225
48.5734,7.75211,FR,France,Strasbourg,91.134.22.62
51.4808,0.174675,GB,United Kingdom,Erith,57.128.188.88
48.5734,7.75211,FR,France,Strasbourg,91.134.22.6
