latitude,longitude,Country Code,Country,City,IP Address
52.352,4.9392,NL,The Netherlands,Amsterdam,84.32.186.15
50.3878,8.07286,DE,Germany,Limburg an der Lahn,141.95.124.216
34.0544,-118.2441,US,United States,Los Angeles,84.54.23.48
51.5123,-0.0909,GB,United Kingdom,London,67.209.52.73
51.5074,-0.1196,GB,United Kingdom,London,198.244.253.60
50.7012,3.21501,FR,France,Wattrelos,162.19.37.247
48.1951,16.3483,AT,Austria,Vienna,89.58.16.139
