latitude,longitude,Country Code,Country,City,IP Address
39.018,-77.539,US,United States,Ashburn,150.136.127.40
49.4423,11.0191,DE,Germany,Nuremberg,152.53.22.28
40.0992,-83.1141,US,United States,Dublin,3.132.241.37
49.4527,11.0783,DE,Germany,Nuremberg,88.198.36.237
53.3498,-6.26031,IE,Ireland,Dublin,34.244.236.193
52.352,4.9392,NL,The Netherlands,Amsterdam,84.32.186.15
50.1109,8.68213,DE,Germany,Frankfurt am Main,52.58.243.225
