latitude,longitude,Country Code,Country,City,IP Address
51.5123,-0.0909,GB,United Kingdom,London,67.209.52.73
52.352,4.9392,NL,The Netherlands,Amsterdam,84.32.186.15
40.8229,-74.4592,US,United States,Cedar Knolls,45.79.149.203
39.0438,-77.4874,US,United States,Ashburn,52.0.54.100
34.0544,-118.2441,US,United States,Los Angeles,84.54.23.48
49.4521,11.0767,DE,Germany,Nuremberg,88.198.36.237
48.2082,16.3738,AT,Austria,Vienna,37.252.190.222
51.5074,-0.1196,GB,United Kingdom,London,198.244.253.60
