latitude,longitude,Country Code,Country,City,IP Address
51.5123,-0.0909,GB,United Kingdom,London,67.209.52.73
48.1951,16.3483,AT,Austria,Vienna,89.58.16.139
48.2906,16.3441,AT,Austria,Klosterneuburg,185.119.118.68
37.5665,126.978,KR,South Korea,Seoul,52.79.171.57
50.475,12.365,DE,Germany,Falkenstein,49.12.150.240
48.2082,16.3738,AT,Austria,Vienna,37.252.190.222
52.352,4.9392,NL,The Netherlands,Amsterdam,84.32.186.15
53.3498,-6.26031,IE,Ireland,Dublin,34.244.236.193
