latitude,longitude,Country Code,Country,City,IP Address
49.4423,11.0191,DE,Germany,Nuremberg,152.53.22.28
48.1951,16.3483,AT,Austria,Vienna,89.58.16.139
39.0438,-77.4874,US,United States,Ashburn,44.197.172.154
1.43508,103.804,SG,Singapore,Singapore,72.46.87.167
43.6547,-79.3623,CA,Canada,Toronto,143.198.46.130
