latitude,longitude,Country Code,Country,City,IP Address
51.4808,0.174675,GB,United Kingdom,Erith,57.128.188.88
40.0992,-83.1141,US,United States,Dublin,3.132.241.37
51.5074,-0.1196,GB,United Kingdom,London,198.244.253.241
39.0438,-77.4874,US,United States,Ashburn,3.239.38.16
39.0438,-77.4874,US,United States,Ashburn,54.91.222.127
43.6547,-79.3623,CA,Canada,Toronto,159.203.6.120
48.1951,16.3483,AT,Austria,Vienna,89.58.16.139
48.5734,7.75211,FR,France,Strasbourg,162.19.43.18
40.8229,-74.4592,US,United States,Cedar Knolls,45.79.149.203
