latitude,longitude,Country Code,Country,City,IP Address
50.1109,8.68213,DE,Germany,Frankfurt am Main,52.58.243.225
49.4423,11.0191,DE,Germany,Nuremberg,152.53.22.28
48.1951,16.3483,AT,Austria,Vienna,89.58.16.139
50.7012,3.21501,FR,France,Wattrelos,162.19.37.247
39.0438,-77.4874,US,United States,Ashburn,3.91.91.237
51.5074,-0.1196,GB,United Kingdom,London,198.244.253.60
39.0438,-77.4874,US,United States,Ashburn,3.239.38.16
39.0438,-77.4874,US,United States,Ashburn,52.0.54.100
