latitude,longitude,Country Code,Country,City,IP Address
50.3986,8.07958,DE,Germany,Limburg an der Lahn,141.95.124.216
39.0438,-77.4874,US,United States,Ashburn,54.196.32.74
51.4808,0.174675,GB,United Kingdom,Erith,57.128.188.88
39.018,-77.539,US,United States,Ashburn,150.136.127.40
1.43508,103.804,SG,Singapore,Singapore,72.46.87.167
50.7012,3.21501,FR,France,Wattrelos,141.94.3.10
49.4423,11.0191,DE,Germany,Nuremberg,152.53.22.28
