latitude,longitude,Country Code,Country,City,IP Address
48.2906,16.3441,AT,Austria,Klosterneuburg,185.119.118.68
50.3878,8.07286,DE,Germany,Limburg an der Lahn,141.95.124.216
49.4423,11.0191,DE,Germany,Nuremberg,152.53.22.28
51.5074,-0.1196,GB,United Kingdom,London,198.244.253.60
34.0544,-118.2441,US,United States,Los Angeles,84.54.23.48
40.8229,-74.4592,US,United States,Cedar Knolls,45.79.149.203
48.2082,16.3738,AT,Austria,Vienna,37.252.190.222
