latitude,longitude,Country Code,Country,City,IP Address
48.1951,16.3483,AT,Austria,Vienna,89.58.16.139
51.4808,0.174675,GB,United Kingdom,Erith,57.128.188.88
39.018,-77.539,US,United States,Ashburn,150.136.127.40
50.3986,8.07958,DE,Germany,Limburg an der Lahn,141.95.124.216
49.4423,11.0191,DE,Germany,Nuremberg,152.53.22.28
39.018,-77.539,US,United States,Ashburn,132.145.202.110
39.0438,-77.4874,US,United States,Ashburn,52.0.54.100
43.6547,-79.3623,CA,Canada,Toronto,159.203.0.182
51.5074,-0.1196,GB,United Kingdom,London,198.244.253.241
