latitude,longitude,Country Code,Country,City,IP Address
51.5074,-0.1196,GB,United Kingdom,London,198.244.253.243
39.0438,-77.4874,US,United States,Ashburn,3.91.91.237
50.1109,8.68213,DE,Germany,Frankfurt am Main,52.58.243.225
48.2906,16.3441,AT,Austria,Klosterneuburg,185.119.118.68
49.4527,11.0783,DE,Germany,Nuremberg,88.198.36.237
49.4423,11.0191,DE,Germany,Nuremberg,152.53.22.28
