latitude,longitude,Country Code,Country,City,IP Address
39.018,-77.539,US,United States,Ashburn,150.136.127.40
48.5734,7.75211,FR,France,Strasbourg,162.19.43.18
48.2082,16.3738,AT,Austria,Vienna,37.252.190.222
51.5074,-0.1196,GB,United Kingdom,London,198.244.253.241
43.6547,-79.3623,CA,Canada,Toronto,143.198.46.130
49.4423,11.0191,DE,Germany,Nuremberg,152.53.22.28
