latitude,longitude,Country Code,Country,City,IP Address
25.8119,-80.2318,US,United States,Miami,45.77.164.36
39.0438,-77.4874,US,United States,Ashburn,3.239.38.16
51.5074,-0.1196,GB,United Kingdom,London,198.244.253.241
50.3986,8.07958,DE,Germany,Limburg an der Lahn,141.95.124.216
48.5734,7.75211,FR,France,Strasbourg,91.134.22.62
39.0438,-77.4874,US,United States,Ashburn,3.91.91.237
40.0992,-83.1141,US,United States,Dublin,3.132.241.37
