latitude,longitude,Country Code,Country,City,IP Address
48.1951,16.3483,AT,Austria,Vienna,89.58.16.139
50.475,12.365,DE,Germany,Falkenstein,49.12.150.240
52.352,4.9392,NL,The Netherlands,Amsterdam,84.32.186.15
48.2906,16.3441,AT,Austria,Klosterneuburg,185.119.118.68
34.0544,-118.2441,US,United States,Los Angeles,84.54.23.48
53.3498,-6.26031,IE,Ireland,Dublin,34.244.236.193
37.5665,126.978,KR,South Korea,Seoul,52.79.171.57
