latitude,longitude,Country Code,Country,City,IP Address
51.5074,-0.1196,GB,United Kingdom,London,198.244.253.241
39.0438,-77.4874,US,United States,Ashburn,3.91.91.237
40.0992,-83.1141,US,United States,Dublin,3.132.241.37
39.018,-77.539,US,United States,Ashburn,150.136.127.40
48.1951,16.3483,AT,Austria,Vienna,89.58.16.139
43.6547,-79.3623,CA,Canada,Toronto,159.203.0.182
48.5734,7.75211,FR,France,Strasbourg,162.19.43.18
51.5074,-0.1196,GB,United Kingdom,London,198.244.253.243
