latitude,longitude,Country Code,Country,City,IP Address
49.4423,11.0191,DE,Germany,Nuremberg,152.53.22.28
39.0438,-77.4874,US,United States,Ashburn,52.0.54.100
50.3878,8.07286,DE,Germany,Limburg an der Lahn,141.95.124.216
48.2906,16.3441,AT,Austria,Klosterneuburg,185.119.118.68
53.3498,-6.26031,IE,Ireland,Dublin,34.244.236.193
50.7012,3.21501,FR,France,Wattrelos,162.19.37.247
