latitude,longitude,Country Code,Country,City,IP Address
48.5734,7.75211,FR,France,Strasbourg,162.19.43.18
48.5734,7.75211,FR,France,Strasbourg,91.134.22.62
50.1109,8.68213,DE,Germany,Frankfurt am Main,52.58.243.225
50.4777,12.3649,DE,Germany,Falkenstein,49.12.150.240
50.7012,3.21501,FR,France,Wattrelos,162.19.37.247
43.6547,-79.3623,CA,Canada,Toronto,159.203.6.120
