latitude,longitude,Country Code,Country,City,IP Address
49.4423,11.0191,DE,Germany,Nuremberg,152.53.22.28
50.7012,3.21501,FR,France,Wattrelos,162.19.37.247
50.475,12.365,DE,Germany,Falkenstein,49.12.150.240
37.5665,126.978,KR,South Korea,Seoul,52.79.171.57
48.8323,2.4075,FR,France,Paris,51.159.137.138
52.352,4.9392,NL,The Netherlands,Amsterdam,84.32.186.15
