latitude,longitude,Country Code,Country,City,IP Address
51.5074,-0.1196,GB,United Kingdom,London,198.244.253.241
50.1109,8.68213,DE,Germany,Frankfurt am Main,52.58.243.225
25.8119,-80.2318,US,United States,Miami,45.77.164.36
39.0438,-77.4874,US,United States,Ashburn,52.0.54.100
48.5734,7.75211,FR,France,Strasbourg,162.19.43.18
51.5123,-0.0909,GB,United Kingdom,London,67.209.52.73
50.4777,12.3649,DE,Germany,Falkenstein,49.12.150.240
48.2906,16.3441,AT,Austria,Klosterneuburg,185.119.118.68
48.5734,7.75211,FR,France,Strasbourg,91.134.22.62
