latitude,longitude,Country Code,Country,City,IP Address
48.2906,16.3441,AT,Austria,Klosterneuburg,185.119.118.68
39.0438,-77.4874,US,United States,Ashburn,52.0.54.100
37.5665,126.978,KR,South Korea,Seoul,52.79.171.57
49.4423,11.0191,DE,Germany,Nuremberg,152.53.22.28
51.5123,-0.0909,GB,United Kingdom,London,67.209.52.73
50.3986,8.07958,DE,Germany,Limburg an der Lahn,141.95.124.216
48.8323,2.4075,FR,France,Paris,51.159.137.138
50.475,12.365,DE,Germany,Falkenstein,49.12.150.240
