latitude,longitude,Country Code,Country,City,IP Address
51.4808,0.174675,GB,United Kingdom,Erith,57.128.188.88
43.6547,-79.3623,CA,Canada,Toronto,143.198.46.130
39.0438,-77.4874,US,United States,Ashburn,3.91.91.237
1.43508,103.804,SG,Singapore,Singapore,72.46.87.185
37.5665,126.978,KR,South Korea,Seoul,52.79.171.57
40.0992,-83.1141,US,United States,Dublin,3.132.241.37
51.5074,-0.1196,GB,United Kingdom,London,198.244.253.241
43.6547,-79.3623,CA,Canada,Toronto,159.203.0.182
43.6547,-79.3623,CA,Canada,Toronto,159.203.6.120
