latitude,longitude,Country Code,Country,City,IP Address
48.2906,16.3441,AT,Austria,Klosterneuburg,185.119.118.68
34.0544,-118.2441,US,United States,Los Angeles,84.54.23.48
49.4521,11.0767,DE,Germany,Nuremberg,88.198.36.237
53.3498,-6.26031,IE,Ireland,Dublin,34.244.236.193
48.8323,2.4075,FR,France,Paris,51.159.137.138
