latitude,longitude,Country Code,Country,City,IP Address
40.0992,-83.1141,US,United States,Dublin,3.132.241.37
43.6547,-79.3623,CA,Canada,Toronto,143.198.46.130
43.6547,-79.3623,CA,Canada,Toronto,159.203.6.120
51.5123,-0.0909,GB,United Kingdom,London,67.209.52.73
39.0438,-77.4874,US,United States,Ashburn,3.91.91.237
50.475,12.365,DE,Germany,Falkenstein,49.12.150.240
50.7012,3.21501,FR,France,Wattrelos,162.19.37.247
