latitude,longitude,Country Code,Country,City,IP Address
43.6547,-79.3623,CA,Canada,Toronto,159.203.6.120
50.1109,8.68213,DE,Germany,Frankfurt am Main,52.58.243.225
48.5734,7.75211,FR,France,Strasbourg,91.134.22.62
50.3986,8.07958,DE,Germany,Limburg an der Lahn,141.95.124.216
48.5734,7.75211,FR,France,Strasbourg,162.19.43.18
39.0438,-77.4874,US,United States,Ashburn,3.239.38.16
51.5074,-0.1196,GB,United Kingdom,London,198.244.253.60
37.5665,126.978,KR,South Korea,Seoul,52.79.171.57
43.6547,-79.3623,CA,Canada,Toronto,143.198.46.130
