latitude,longitude,Country Code,Country,City,IP Address
48.5734,7.75211,FR,France,Strasbourg,91.134.22.62
51.5074,-0.1196,GB,United Kingdom,London,198.244.253.243
43.6547,-79.3623,CA,Canada,Toronto,143.198.46.130
51.5123,-0.0909,GB,United Kingdom,London,67.209.52.73
49.4423,11.0191,DE,Germany,Nuremberg,152.53.22.28
-23.5335,-46.6359,BR,Brazil,São Paulo,177.54.147.193
50.7012,3.21501,FR,France,Wattrelos,162.19.37.247
51.1878,6.8607,DE,Germany,Düsseldorf,84.54.23.48
