latitude,longitude,Country Code,Country,City,IP Address
51.5123,-0.0909,GB,United Kingdom,London,67.209.52.73
51.1878,6.8607,DE,Germany,Düsseldorf,84.54.23.48
43.6547,-79.3623,CA,Canada,Toronto,159.203.0.182
48.2082,16.3738,AT,Austria,Vienna,37.252.190.222
49.4527,11.0783,DE,Germany,Nuremberg,88.198.36.237
-23.5335,-46.6359,BR,Brazil,São Paulo,177.54.147.193
48.1951,16.3483,AT,Austria,Vienna,89.58.16.139
52.352,4.9392,NL,The Netherlands,Amsterdam,84.32.186.15
49.4423,11.0191,DE,Germany,Nuremberg,152.53.22.28
