latitude,longitude,Country Code,Country,City,IP Address
48.1951,16.3483,AT,Austria,Vienna,89.58.16.139
40.8229,-74.4592,US,United States,Cedar Knolls,45.79.149.203
50.475,12.365,DE,Germany,Falkenstein,49.12.150.240
51.5123,-0.0909,GB,United Kingdom,London,67.209.52.73
37.5665,126.978,KR,South Korea,Seoul,52.79.171.57
53.3498,-6.26031,IE,Ireland,Dublin,34.244.236.193
