latitude,longitude,Country Code,Country,City,IP Address
49.4423,11.0191,DE,Germany,Nuremberg,152.53.22.28
50.475,12.365,DE,Germany,Falkenstein,49.12.150.240
51.5123,-0.0909,GB,United Kingdom,London,67.209.52.73
48.8323,2.4075,FR,France,Paris,51.159.137.138
53.3498,-6.26031,IE,Ireland,Dublin,34.244.236.193
