latitude,longitude,Country Code,Country,City,IP Address
39.018,-77.539,US,United States,Ashburn,150.136.127.40
50.3986,8.07958,DE,Germany,Limburg an der Lahn,141.95.124.216
51.5123,-0.0909,GB,United Kingdom,London,67.209.52.73
52.352,4.9392,NL,The Netherlands,Amsterdam,84.32.186.15
50.7012,3.21501,FR,France,Wattrelos,162.19.85.200
51.5074,-0.1196,GB,United Kingdom,London,198.244.253.243
