latitude,longitude,Country Code,Country,City,IP Address
52.352,4.9392,NL,The Netherlands,Amsterdam,84.32.186.15
48.2906,16.3441,AT,Austria,Klosterneuburg,185.119.118.68
48.1951,16.3483,AT,Austria,Vienna,89.58.16.139
51.5123,-0.0909,GB,United Kingdom,London,67.209.52.73
49.4521,11.0767,DE,Germany,Nuremberg,88.198.36.237
