latitude,longitude,Country Code,Country,City,IP Address
50.475,12.365,DE,Germany,Falkenstein,49.12.150.240
50.7012,3.21501,FR,France,Wattrelos,162.19.37.247
48.2906,16.3441,AT,Austria,Klosterneuburg,185.119.118.68
48.1951,16.3483,AT,Austria,Vienna,89.58.16.139
52.352,4.9392,NL,The Netherlands,Amsterdam,84.32.186.15
39.0438,-77.4874,US,United States,Ashburn,54.91.222.127
39.0438,-77.4874,US,United States,Ashburn,52.0.54.100
