latitude,longitude,Country Code,Country,City,IP Address
49.4423,11.0191,DE,Germany,Nuremberg,152.53.22.28
48.1951,16.3483,AT,Austria,Vienna,89.58.16.139
51.5123,-0.0909,GB,United Kingdom,London,67.209.52.73
53.3498,-6.26031,IE,Ireland,Dublin,34.244.236.193
34.0544,-118.2441,US,United States,Los Angeles,84.54.23.48
51.5074,-0.1196,GB,United Kingdom,London,198.244.253.60
39.0438,-77.4874,US,United States,Ashburn,3.91.91.237
