latitude,longitude,Country Code,Country,City,IP Address
48.2906,16.3441,AT,Austria,Klosterneuburg,185.119.118.68
49.4423,11.0191,DE,Germany,Nuremberg,152.53.22.28
48.5734,7.75211,FR,France,Strasbourg,91.134.22.6
43.6547,-79.3623,CA,Canada,Toronto,143.198.46.130
39.0438,-77.4874,US,United States,Ashburn,3.91.91.237
37.5665,126.978,KR,South Korea,Seoul,52.79.171.57
39.0438,-77.4874,US,United States,Ashburn,52.0.54.100
