latitude,longitude,Country Code,Country,City,IP Address
39.018,-77.539,US,United States,Ashburn,150.136.127.40
49.4423,11.0191,DE,Germany,Nuremberg,152.53.22.28
40.0992,-83.1141,US,United States,Dublin,3.132.241.37
25.8119,-80.2318,US,United States,Miami,45.77.164.36
48.5734,7.75211,FR,France,Strasbourg,91.134.22.6
39.0438,-77.4874,US,United States,Ashburn,54.91.222.127
53.3498,-6.26031,IE,Ireland,Dublin,34.244.236.193
