latitude,longitude,Country Code,Country,City,IP Address
39.0438,-77.4874,US,United States,Ashburn,52.0.54.100
50.3878,8.07286,DE,Germany,Limburg an der Lahn,141.95.124.216
48.1951,16.3483,AT,Austria,Vienna,89.58.16.139
49.4521,11.0767,DE,Germany,Nuremberg,88.198.36.237
34.0544,-118.2441,US,United States,Los Angeles,84.54.23.48
49.4423,11.0191,DE,Germany,Nuremberg,152.53.22.28
48.8323,2.4075,FR,France,Paris,51.159.137.138
51.5123,-0.0909,GB,United Kingdom,London,67.209.52.73
50.475,12.365,DE,Germany,Falkenstein,49.12.150.240
