latitude,longitude,Country Code,Country,City,IP Address
39.0438,-77.4874,US,United States,Ashburn,52.0.54.100
51.1878,6.8607,DE,Germany,Düsseldorf,84.54.23.48
51.5123,-0.0909,GB,United Kingdom,London,67.209.52.73
48.5734,7.75211,FR,France,Strasbourg,162.19.43.18
25.8119,-80.2318,US,United States,Miami,45.77.164.36
-23.5335,-46.6359,BR,Brazil,São Paulo,177.54.147.193
