latitude,longitude,Country Code,Country,City,IP Address
39.0438,-77.4874,US,United States,Ashburn,3.91.91.237
40.0992,-83.1141,US,United States,Dublin,3.132.241.37
51.4808,0.174675,GB,United Kingdom,Erith,57.128.188.88
39.0438,-77.4874,US,United States,Ashburn,54.91.222.127
52.352,4.9392,NL,The Netherlands,Amsterdam,84.32.186.15
38.9071,-77.0368,US,United States,Washington,34.86.160.44
48.5734,7.75211,FR,France,Strasbourg,162.19.43.6
39.0438,-77.4874,US,United States,Ashburn,44.197.172.154
1.43508,103.804,SG,Singapore,Singapore,72.46.87.167
