latitude,longitude,Country Code,Country,City,IP Address
48.5734,7.75211,FR,France,Strasbourg,162.19.43.18
40.8229,-74.4592,US,United States,Cedar Knolls,45.79.149.203
38.9071,-77.0368,US,United States,Washington,34.86.160.44
39.0438,-77.4874,US,United States,Ashburn,52.0.54.100
37.5665,126.978,KR,South Korea,Seoul,52.79.171.57
51.5123,-0.0909,GB,United Kingdom,London,67.209.52.73
25.8119,-80.2318,US,United States,Miami,45.77.164.36
50.7012,3.21501,FR,France,Wattrelos,162.19.37.247
