latitude,longitude,Country Code,Country,City,IP Address
48.5734,7.75211,FR,France,Strasbourg,91.134.22.62
-23.5335,-46.6359,BR,Brazil,São Paulo,177.54.147.193
51.5123,-0.0909,GB,United Kingdom,London,67.209.52.73
50.4777,12.3649,DE,Germany,Falkenstein,49.12.150.240
51.1878,6.8607,DE,Germany,Düsseldorf,84.54.23.48
