latitude,longitude,Country Code,Country,City,IP Address
51.5074,-0.1196,GB,United Kingdom,London,198.244.253.243
48.1951,16.3483,AT,Austria,Vienna,89.58.16.139
25.8119,-80.2318,US,United States,Miami,45.77.164.36
50.4777,12.3649,DE,Germany,Falkenstein,49.12.150.240
43.6547,-79.3623,CA,Canada,Toronto,143.198.46.130
48.2082,16.3738,AT,Austria,Vienna,37.252.190.222
