latitude,longitude,Country Code,Country,City,IP Address
50.3986,8.07958,DE,Germany,Limburg an der Lahn,141.95.124.216
32.8771,-80.013,US,United States,North Charleston,35.185.91.239
51.4808,0.174675,GB,United Kingdom,Erith,57.128.188.88
40.0992,-83.1141,US,United States,Dublin,3.132.241.37
39.0438,-77.4874,US,United States,Ashburn,3.91.91.237
1.43508,103.804,SG,Singapore,Singapore,72.46.87.185
39.018,-77.539,US,United States,Ashburn,150.136.127.40
39.0438,-77.4874,US,United States,Ashburn,54.196.32.74
