latitude,longitude,Country Code,Country,City,IP Address
51.5123,-0.0909,GB,United Kingdom,London,67.209.52.73
50.3878,8.07286,DE,Germany,Limburg an der Lahn,141.95.124.216
39.0438,-77.4874,US,United States,Ashburn,3.91.91.237
49.4423,11.0191,DE,Germany,Nuremberg,152.53.22.28
48.1951,16.3483,AT,Austria,Vienna,89.58.16.139
48.2082,16.3738,AT,Austria,Vienna,37.252.190.222
49.4521,11.0767,DE,Germany,Nuremberg,88.198.36.237
50.475,12.365,DE,Germany,Falkenstein,49.12.150.240
34.0544,-118.2441,US,United States,Los Angeles,84.54.23.48
