latitude,longitude,Country Code,Country,City,IP Address
48.5734,7.75211,FR,France,Strasbourg,91.134.22.62
43.6547,-79.3623,CA,Canada,Toronto,159.203.6.120
40.0992,-83.1141,US,United States,Dublin,3.132.241.37
50.3986,8.07958,DE,Germany,Limburg an der Lahn,141.95.124.216
49.4423,11.0191,DE,Germany,Nuremberg,152.53.22.28
25.8119,-80.2318,US,United States,Miami,45.77.164.36
43.6547,-79.3623,CA,Canada,Toronto,143.198.46.130
52.352,4.9392,NL,The Netherlands,Amsterdam,84.32.186.15
38.9071,-77.0368,US,United States,Washington,34.86.160.44
