latitude,longitude,Country Code,Country,City,IP Address
51.5123,-0.0909,GB,United Kingdom,London,67.209.52.73
49.4423,11.0191,DE,Germany,Nuremberg,152.53.22.28
48.2906,16.3441,AT,Austria,Klosterneuburg,185.119.118.68
50.7012,3.21501,FR,France,Wattrelos,162.19.37.247
34.0544,-118.2441,US,United States,Los Angeles,84.54.23.48
48.8323,2.4075,FR,France,Paris,51.159.137.138
37.5665,126.978,KR,South Korea,Seoul,52.79.171.57
