latitude,longitude,Country Code,Country,City,IP Address
49.4423,11.0191,DE,Germany,Nuremberg,152.53.22.28
48.1951,16.3483,AT,Austria,Vienna,89.58.16.139
50.7012,3.21501,FR,France,Wattrelos,162.19.37.247
51.5074,-0.1196,GB,United Kingdom,London,198.244.253.60
34.0544,-118.2441,US,United States,Los Angeles,84.54.23.48
50.3878,8.07286,DE,Germany,Limburg an der Lahn,141.95.124.216
53.3498,-6.26031,IE,Ireland,Dublin,34.244.236.193
