latitude,longitude,Country Code,Country,City,IP Address
48.1951,16.3483,AT,Austria,Vienna,89.58.16.139
32.8771,-80.013,US,United States,North Charleston,35.185.91.239
40.8229,-74.4592,US,United States,Cedar Knolls,45.79.149.203
51.5074,-0.1196,GB,United Kingdom,London,198.244.253.241
40.0992,-83.1141,US,United States,Dublin,3.132.241.37
50.1109,8.68213,DE,Germany,Frankfurt am Main,52.58.243.225
