latitude,longitude,Country Code,Country,City,IP Address
48.1951,16.3483,AT,Austria,Vienna,89.58.16.139
50.3878,8.07286,DE,Germany,Limburg an der Lahn,141.95.124.216
37.5665,126.978,KR,South Korea,Seoul,52.79.171.57
50.7012,3.21501,FR,France,Wattrelos,162.19.37.247
49.4521,11.0767,DE,Germany,Nuremberg,88.198.36.237
