latitude,longitude,Country Code,Country,City,IP Address
52.352,4.9392,NL,The Netherlands,Amsterdam,84.32.186.15
50.3878,8.07286,DE,Germany,Limburg an der Lahn,141.95.124.216
50.7012,3.21501,FR,France,Wattrelos,162.19.37.247
49.4521,11.0767,DE,Germany,Nuremberg,88.198.36.237
48.2906,16.3441,AT,Austria,Klosterneuburg,185.119.118.68
