latitude,longitude,Country Code,Country,City,IP Address
1.43508,103.804,SG,Singapore,Singapore,72.46.87.185
39.018,-77.539,US,United States,Ashburn,150.136.127.40
32.8771,-80.013,US,United States,North Charleston,35.185.91.239
39.0438,-77.4874,US,United States,Ashburn,44.197.172.154
48.8323,2.4075,FR,France,Paris,51.159.137.138
51.5074,-0.1196,GB,United Kingdom,London,198.244.253.60
50.7012,3.21501,FR,France,Wattrelos,162.19.85.200
