latitude,longitude,Country Code,Country,City,IP Address
48.5734,7.75211,FR,France,Strasbourg,91.134.22.62
39.0438,-77.4874,US,United States,Ashburn,3.239.38.16
25.8119,-80.2318,US,United States,Miami,45.77.164.36
50.475,12.365,DE,Germany,Falkenstein,49.12.150.240
48.8323,2.4075,FR,France,Paris,51.159.137.138
51.5074,-0.1196,GB,United Kingdom,London,198.244.253.60
50.7012,3.21501,FR,France,Wattrelos,162.19.37.247
