latitude,longitude,Country Code,Country,City,IP Address
49.4423,11.0191,DE,Germany,Nuremberg,152.53.22.28
51.5074,-0.1196,GB,United Kingdom,London,198.244.253.241
48.1951,16.3483,AT,Austria,Vienna,89.58.16.139
51.5074,-0.1196,GB,United Kingdom,London,198.244.253.243
39.0438,-77.4874,US,United States,Ashburn,52.0.54.100
39.018,-77.539,US,United States,Ashburn,150.136.127.40
50.7012,3.21501,FR,France,Wattrelos,162.19.37.247
