latitude,longitude,Country Code,Country,City,IP Address
48.1951,16.3483,AT,Austria,Vienna,89.58.16.139
39.018,-77.539,US,United States,Ashburn,150.136.127.40
49.4423,11.0191,DE,Germany,Nuremberg,152.53.22.28
50.1109,8.68213,DE,Germany,Frankfurt am Main,52.58.243.225
48.5734,7.75211,FR,France,Strasbourg,162.19.43.18
53.3498,-6.26031,IE,Ireland,Dublin,34.244.236.193
40.0992,-83.1141,US,United States,Dublin,3.132.241.37
