latitude,longitude,Country Code,Country,City,IP Address
40.0992,-83.1141,US,United States,Dublin,3.132.241.37
32.8771,-80.013,US,United States,North Charleston,35.185.91.239
39.0438,-77.4874,US,United States,Ashburn,3.239.38.16
51.5123,-0.0909,GB,United Kingdom,London,67.209.52.73
51.5074,-0.1196,GB,United Kingdom,London,198.244.253.241
39.018,-77.539,US,United States,Ashburn,150.136.127.40
50.1109,8.68213,DE,Germany,Frankfurt am Main,52.58.243.225
