latitude,longitude,Country Code,Country,City,IP Address
25.8119,-80.2318,US,United States,Miami,45.77.164.36
43.6547,-79.3623,CA,Canada,Toronto,159.203.0.182
48.1951,16.3483,AT,Austria,Vienna,89.58.16.139
43.6547,-79.3623,CA,Canada,Toronto,143.198.46.130
53.3498,-6.26031,IE,Ireland,Dublin,34.244.236.193
50.4777,12.3649,DE,Germany,Falkenstein,49.12.150.240
