latitude,longitude,Country Code,Country,City,IP Address
25.8119,-80.2318,US,United States,Miami,45.77.164.36
50.1109,8.68213,DE,Germany,Frankfurt am Main,52.58.243.225
48.2906,16.3441,AT,Austria,Klosterneuburg,185.119.118.68
39.018,-77.539,US,United States,Ashburn,150.136.127.40
37.5665,126.978,KR,South Korea,Seoul,52.79.171.57
50.3986,8.07958,DE,Germany,Limburg an der Lahn,141.95.124.216
39.0438,-77.4874,US,United States,Ashburn,54.91.222.127
