latitude,longitude,Country Code,Country,City,IP Address
48.1951,16.3483,AT,Austria,Vienna,89.58.16.139
25.8119,-80.2318,US,United States,Miami,45.77.164.36
51.5123,-0.0909,GB,United Kingdom,London,67.209.52.73
39.018,-77.539,US,United States,Ashburn,150.136.127.40
39.0438,-77.4874,US,United States,Ashburn,3.91.91.237
52.352,4.9392,NL,The Netherlands,Amsterdam,84.32.186.15
39.0438,-77.4874,US,United States,Ashburn,3.239.38.16
