latitude,longitude,Country Code,Country,City,IP Address
43.6547,-79.3623,CA,Canada,Toronto,159.203.0.182
39.0438,-77.4874,US,United States,Ashburn,52.0.54.100
40.0992,-83.1141,US,United States,Dublin,3.132.241.37
48.5734,7.75211,FR,France,Strasbourg,162.19.43.18
39.0438,-77.4874,US,United States,Ashburn,54.91.222.127
25.8119,-80.2318,US,United States,Miami,45.77.164.36
43.6547,-79.3623,CA,Canada,Toronto,159.203.6.120
51.5074,-0.1196,GB,United Kingdom,London,198.244.253.241
51.5074,-0.1196,GB,United Kingdom,London,198.244.253.60
