latitude,longitude,Country Code,Country,City,IP Address
48.5734,7.75211,FR,France,Strasbourg,91.134.22.62
39.0438,-77.4874,US,United States,Ashburn,54.196.32.74
43.6547,-79.3623,CA,Canada,Toronto,159.203.6.120
40.0992,-83.1141,US,United States,Dublin,3.132.241.37
50.7012,3.21501,FR,France,Wattrelos,162.19.37.247
43.6547,-79.3623,CA,Canada,Toronto,143.198.46.130
39.018,-77.539,US,United States,Ashburn,150.136.127.40
40.8229,-74.4592,US,United States,Cedar Knolls,45.79.149.203
