latitude,longitude,Country Code,Country,City,IP Address
51.5074,-0.1196,GB,United Kingdom,London,198.244.253.241
25.8119,-80.2318,US,United States,Miami,45.77.164.36
39.0438,-77.4874,US,United States,Ashburn,52.0.54.100
48.2906,16.3441,AT,Austria,Klosterneuburg,185.119.118.68
51.4808,0.174675,GB,United Kingdom,Erith,57.128.188.88
39.0438,-77.4874,US,United States,Ashburn,3.91.91.237
49.4423,11.0191,DE,Germany,Nuremberg,152.53.22.28
38.9071,-77.0368,US,United States,Washington,34.86.160.44
37.5665,126.978,KR,South Korea,Seoul,52.79.171.57
