latitude,longitude,Country Code,Country,City,IP Address
51.4808,0.174675,GB,United Kingdom,Erith,57.128.188.88
43.6547,-79.3623,CA,Canada,Toronto,159.203.0.182
25.8119,-80.2318,US,United States,Miami,45.77.164.36
51.1878,6.8607,DE,Germany,Düsseldorf,84.54.23.48
48.1951,16.3483,AT,Austria,Vienna,89.58.16.139
49.4527,11.0783,DE,Germany,Nuremberg,88.198.36.237
50.7012,3.21501,FR,France,Wattrelos,141.94.3.10
-23.5335,-46.6359,BR,Brazil,São Paulo,177.54.147.193
39.018,-77.539,US,United States,Ashburn,150.136.127.40
