latitude,longitude,Country Code,Country,City,IP Address
50.7012,3.21501,FR,France,Wattrelos,141.94.3.10
43.6547,-79.3623,CA,Canada,Toronto,159.203.6.120
51.5123,-0.0909,GB,United Kingdom,London,67.209.52.73
50.3986,8.07958,DE,Germany,Limburg an der Lahn,141.95.124.216
51.5074,-0.1196,GB,United Kingdom,London,198.244.253.241
48.5734,7.75211,FR,France,Strasbourg,91.134.22.6
43.6547,-79.3623,CA,Canada,Toronto,143.198.46.130
39.018,-77.539,US,United States,Ashburn,150.136.127.40
51.5074,-0.1196,GB,United Kingdom,London,198.244.253.243
