latitude,longitude,Country Code,Country,City,IP Address
25.8119,-80.2318,US,United States,Miami,45.77.164.36
1.43508,103.804,SG,Singapore,Singapore,72.46.87.185
39.018,-77.539,US,United States,Ashburn,150.136.127.40
39.0438,-77.4874,US,United States,Ashburn,3.91.91.237
39.018,-77.539,US,United States,Ashburn,132.145.202.110
49.4527,11.0783,DE,Germany,Nuremberg,88.198.36.237
50.1109,8.68213,DE,Germany,Frankfurt am Main,52.58.243.225
