latitude,longitude,Country Code,Country,City,IP Address
48.2906,16.3441,AT,Austria,Klosterneuburg,185.119.118.68
40.0992,-83.1141,US,United States,Dublin,3.132.241.37
38.9071,-77.0368,US,United States,Washington,34.86.160.44
51.5074,-0.1196,GB,United Kingdom,London,198.244.253.243
43.6547,-79.3623,CA,Canada,Toronto,159.203.6.120
