latitude,longitude,Country Code,Country,City,IP Address
51.5074,-0.1196,GB,United Kingdom,London,198.244.253.243
40.0992,-83.1141,US,United States,Dublin,3.132.241.37
53.3498,-6.26031,IE,Ireland,Dublin,34.244.236.193
50.1109,8.68213,DE,Germany,Frankfurt am Main,52.58.243.225
43.6547,-79.3623,CA,Canada,Toronto,159.203.0.182
49.4527,11.0783,DE,Germany,Nuremberg,88.198.36.237
43.6547,-79.3623,CA,Canada,Toronto,143.198.46.130
