latitude,longitude,Country Code,Country,City,IP Address
51.5074,-0.1196,GB,United Kingdom,London,198.244.253.243
49.4423,11.0191,DE,Germany,Nuremberg,152.53.22.28
48.8323,2.4075,FR,France,Paris,51.159.137.138
48.5734,7.75211,FR,France,Strasbourg,162.19.43.18
40.8229,-74.4592,US,United States,Cedar Knolls,45.79.149.203
