latitude,longitude,Country Code,Country,City,IP Address
48.2906,16.3441,AT,Austria,Klosterneuburg,185.119.118.68
40.8229,-74.4592,US,United States,Cedar Knolls,45.79.149.203
48.1951,16.3483,AT,Austria,Vienna,89.58.16.139
52.352,4.9392,NL,The Netherlands,Amsterdam,84.32.186.15
39.0438,-77.4874,US,United States,Ashburn,52.0.54.100
48.8323,2.4075,FR,France,Paris,51.159.137.138
37.5665,126.978,KR,South Korea,Seoul,52.79.171.57
49.4423,11.0191,DE,Germany,Nuremberg,152.53.22.28
