latitude,longitude,Country Code,Country,City,IP Address
39.0438,-77.4874,US,United States,Ashburn,3.91.91.237
37.5665,126.978,KR,South Korea,Seoul,52.79.171.57
48.2082,16.3738,AT,Austria,Vienna,37.252.190.222
51.5074,-0.1196,GB,United Kingdom,London,198.244.253.60
51.5123,-0.0909,GB,United Kingdom,London,67.209.52.73
49.4521,11.0767,DE,Germany,Nuremberg,88.198.36.237
