latitude,longitude,Country Code,Country,City,IP Address
51.5074,-0.1196,GB,United Kingdom,London,198.244.253.241
49.4423,11.0191,DE,Germany,Nuremberg,152.53.22.28
39.018,-77.539,US,United States,Ashburn,150.136.127.40
51.5074,-0.1196,GB,United Kingdom,London,198.244.253.243
39.0438,-77.4874,US,United States,Ashburn,52.0.54.100
48.2906,16.3441,AT,Austria,Klosterneuburg,185.119.118.68
40.8229,-74.4592,US,United States,Cedar Knolls,45.79.149.203
48.2082,16.3738,AT,Austria,Vienna,37.252.190.222
