latitude,longitude,Country Code,Country,City,IP Address
43.6547,-79.3623,CA,Canada,Toronto,159.203.0.182
50.3986,8.07958,DE,Germany,Limburg an der Lahn,141.95.124.216
48.5734,7.75211,FR,France,Strasbourg,91.134.22.62
39.018,-77.539,US,United States,Ashburn,150.136.127.40
48.5734,7.75211,FR,France,Strasbourg,162.19.43.18
49.4423,11.0191,DE,Germany,Nuremberg,152.53.22.28
49.4527,11.0783,DE,Germany,Nuremberg,88.198.36.237
