latitude,longitude,Country Code,Country,City,IP Address
50.1109,8.68213,DE,Germany,Frankfurt am Main,52.58.243.225
51.4808,0.174675,GB,United Kingdom,Erith,57.128.188.88
37.5665,126.978,KR,South Korea,Seoul,52.79.171.57
25.8119,-80.2318,US,United States,Miami,45.77.164.36
48.2906,16.3441,AT,Austria,Klosterneuburg,185.119.118.68
50.3986,8.07958,DE,Germany,Limburg an der Lahn,141.95.124.216
50.7012,3.21501,FR,France,Wattrelos,162.19.85.200
48.5734,7.75211,FR,France,Strasbourg,91.134.22.6
38.9071,-77.0368,US,United States,Washington,34.86.160.44
