latitude,longitude,Country Code,Country,City,IP Address
37.5665,126.978,KR,South Korea,Seoul,52.79.171.57
51.4808,0.174675,GB,United Kingdom,Erith,57.128.188.88
39.0438,-77.4874,US,United States,Ashburn,3.91.91.237
50.4777,12.3649,DE,Germany,Falkenstein,49.12.150.240
1.43508,103.804,SG,Singapore,Singapore,72.46.87.185
