latitude,longitude,Country Code,Country,City,IP Address
37.5665,126.978,KR,South Korea,Seoul,52.79.171.57
43.6547,-79.3623,CA,Canada,Toronto,143.198.46.130
39.0438,-77.4874,US,United States,Ashburn,44.197.172.154
40.0992,-83.1141,US,United States,Dublin,3.132.241.37
49.4423,11.0191,DE,Germany,Nuremberg,152.53.22.28
48.2082,16.3738,AT,Austria,Vienna,37.252.190.222
48.2906,16.3441,AT,Austria,Klosterneuburg,185.119.118.68
