latitude,longitude,Country Code,Country,City,IP Address
51.5123,-0.0909,GB,United Kingdom,London,67.209.52.73
51.5074,-0.1196,GB,United Kingdom,London,198.244.253.60
49.4423,11.0191,DE,Germany,Nuremberg,152.53.22.28
52.352,4.9392,NL,The Netherlands,Amsterdam,84.32.186.15
50.3878,8.07286,DE,Germany,Limburg an der Lahn,141.95.124.216
39.0438,-77.4874,US,United States,Ashburn,52.0.54.100
