latitude,longitude,Country Code,Country,City,IP Address
50.7012,3.21501,FR,France,Wattrelos,162.19.85.200
48.1951,16.3483,AT,Austria,Vienna,89.58.16.139
41.0416,-73.9572,US,United States,Orangeburg,89.117.78.187
43.6547,-79.3623,CA,Canada,Toronto,143.198.46.130
38.9071,-77.0368,US,United States,Washington,34.86.160.44
37.3931,-121.962,US,United States,Santa Clara,64.227.110.67
