latitude,longitude,Country Code,Country,City,IP Address
50.1109,8.68213,DE,Germany,Frankfurt am Main,52.58.243.225
39.0438,-77.4874,US,United States,Ashburn,52.0.54.100
50.3986,8.07958,DE,Germany,Limburg an der Lahn,141.95.124.216
40.0992,-83.1141,US,United States,Dublin,3.132.241.37
49.4527,11.0783,DE,Germany,Nuremberg,88.198.36.237
43.6547,-79.3623,CA,Canada,Toronto,143.198.46.130
