latitude,longitude,Country Code,Country,City,IP Address
48.5734,7.75211,FR,France,Strasbourg,91.134.22.6
39.0438,-77.4874,US,United States,Ashburn,54.196.32.74
40.0992,-83.1141,US,United States,Dublin,3.132.241.37
39.018,-77.539,US,United States,Ashburn,132.145.202.110
39.0438,-77.4874,US,United States,Ashburn,44.197.172.154
48.5734,7.75211,FR,France,Strasbourg,91.134.22.62
49.4423,11.0191,DE,Germany,Nuremberg,152.53.22.28
37.5665,126.978,KR,South Korea,Seoul,52.79.171.57
37.3931,-121.962,US,United States,Santa Clara,64.227.110.67
