latitude,longitude,Country Code,Country,City,IP Address
39.0438,-77.4874,US,United States,Ashburn,3.91.91.237
48.1951,16.3483,AT,Austria,Vienna,89.58.16.139
39.018,-77.539,US,United States,Ashburn,150.136.127.40
50.4777,12.3649,DE,Germany,Falkenstein,49.12.150.240
41.0416,-73.9572,US,United States,Orangeburg,89.117.78.187
51.5074,-0.1196,GB,United Kingdom,London,198.244.253.60
51.5123,-0.0909,GB,United Kingdom,London,67.209.52.73
32.8771,-80.013,US,United States,North Charleston,35.185.91.239
