latitude,longitude,Country Code,Country,City,IP Address
48.8323,2.4075,FR,France,Paris,51.159.137.138
39.0438,-77.4874,US,United States,Ashburn,52.0.54.100
52.352,4.9392,NL,The Netherlands,Amsterdam,84.32.186.15
51.5074,-0.1196,GB,United Kingdom,London,198.244.253.241
50.4777,12.3649,DE,Germany,Falkenstein,49.12.150.240
