latitude,longitude,Country Code,Country,City,IP Address
40.0992,-83.1141,US,United States,Dublin,3.132.241.37
51.4808,0.174675,GB,United Kingdom,Erith,57.128.188.88
37.5665,126.978,KR,South Korea,Seoul,52.79.171.57
43.6547,-79.3623,CA,Canada,Toronto,143.198.46.130
50.4777,12.3649,DE,Germany,Falkenstein,49.12.150.240
