latitude,longitude,Country Code,Country,City,IP Address
48.2906,16.3441,AT,Austria,Klosterneuburg,185.119.118.68
48.5734,7.75211,FR,France,Strasbourg,91.134.22.6
37.5665,126.978,KR,South Korea,Seoul,52.79.171.57
50.1109,8.68213,DE,Germany,Frankfurt am Main,52.58.243.225
48.2082,16.3738,AT,Austria,Vienna,37.252.190.222
49.4527,11.0783,DE,Germany,Nuremberg,88.198.36.237
52.352,4.9392,NL,The Netherlands,Amsterdam,84.32.186.15
