latitude,longitude,Country Code,Country,City,IP Address
37.5665,126.978,KR,South Korea,Seoul,52.79.171.57
39.0438,-77.4874,US,United States,Ashburn,3.91.91.237
48.1951,16.3483,AT,Austria,Vienna,89.58.16.139
32.8771,-80.013,US,United States,North Charleston,35.185.91.239
48.5734,7.75211,FR,France,Strasbourg,162.19.43.18
