latitude,longitude,Country Code,Country,City,IP Address
51.5074,-0.1196,GB,United Kingdom,London,198.244.253.241
48.5734,7.75211,FR,France,Strasbourg,162.19.43.18
48.1951,16.3483,AT,Austria,Vienna,89.58.16.139
43.6547,-79.3623,CA,Canada,Toronto,143.198.46.130
50.7012,3.21501,FR,France,Wattrelos,162.19.37.247
51.5123,-0.0909,GB,United Kingdom,London,67.209.52.73
