latitude,longitude,Country Code,Country,City,IP Address
48.5734,7.75211,FR,France,Strasbourg,91.134.22.6
37.5665,126.978,KR,South Korea,Seoul,52.79.171.57
1.43508,103.804,SG,Singapore,Singapore,72.46.87.185
50.1109,8.68213,DE,Germany,Frankfurt am Main,52.58.243.225
39.018,-77.539,US,United States,Ashburn,150.136.127.40
49.4527,11.0783,DE,Germany,Nuremberg,88.198.36.237
39.018,-77.539,US,United States,Ashburn,132.145.202.110
1.43508,103.804,SG,Singapore,Singapore,72.46.87.167
