latitude,longitude,Country Code,Country,City,IP Address
40.0992,-83.1141,US,United States,Dublin,3.132.241.37
43.6547,-79.3623,CA,Canada,Toronto,159.203.0.182
49.4527,11.0783,DE,Germany,Nuremberg,88.198.36.237
25.8119,-80.2318,US,United States,Miami,45.77.164.36
48.8323,2.4075,FR,France,Paris,51.159.137.138
