latitude,longitude,Country Code,Country,City,IP Address
39.018,-77.539,US,United States,Ashburn,132.145.202.110
48.2906,16.3441,AT,Austria,Klosterneuburg,185.119.118.68
51.5123,-0.0909,GB,United Kingdom,London,67.209.52.73
50.3986,8.07958,DE,Germany,Limburg an der Lahn,141.95.124.216
39.0438,-77.4874,US,United States,Ashburn,54.196.32.74
43.6547,-79.3623,CA,Canada,Toronto,159.203.6.120
