latitude,longitude,Country Code,Country,City,IP Address
39.0438,-77.4874,US,United States,Ashburn,3.91.91.237
48.2906,16.3441,AT,Austria,Klosterneuburg,185.119.118.68
51.5123,-0.0909,GB,United Kingdom,London,67.209.52.73
39.0438,-77.4874,US,United States,Ashburn,54.91.222.127
50.475,12.365,DE,Germany,Falkenstein,49.12.150.240
48.8323,2.4075,FR,France,Paris,51.159.137.138
39.0438,-77.4874,US,United States,Ashburn,52.0.54.100
52.352,4.9392,NL,The Netherlands,Amsterdam,84.32.186.15
