latitude,longitude,Country Code,Country,City,IP Address
51.5074,-0.1196,GB,United Kingdom,London,198.244.253.243
37.5665,126.978,KR,South Korea,Seoul,52.79.171.57
25.8119,-80.2318,US,United States,Miami,45.77.164.36
32.8771,-80.013,US,United States,North Charleston,35.185.91.239
38.9071,-77.0368,US,United States,Washington,34.86.160.44
51.4808,0.174675,GB,United Kingdom,Erith,57.128.188.88
43.6547,-79.3623,CA,Canada,Toronto,143.198.46.130
