latitude,longitude,Country Code,Country,City,IP Address
37.5665,126.978,KR,South Korea,Seoul,52.79.171.57
25.8119,-80.2318,US,United States,Miami,45.77.164.36
51.5074,-0.1196,GB,United Kingdom,London,198.244.253.243
39.0438,-77.4874,US,United States,Ashburn,3.239.38.16
51.4808,0.174675,GB,United Kingdom,Erith,57.128.188.88
43.6547,-79.3623,CA,Canada,Toronto,143.198.46.130
51.5074,-0.1196,GB,United Kingdom,London,198.244.253.60
