latitude,longitude,Country Code,Country,City,IP Address
48.1951,16.3483,AT,Austria,Vienna,89.58.16.139
39.0438,-77.4874,US,United States,Ashburn,3.91.91.237
48.2906,16.3441,AT,Austria,Klosterneuburg,185.119.118.68
34.0544,-118.2441,US,United States,Los Angeles,84.54.23.48
39.0438,-77.4874,US,United States,Ashburn,54.91.222.127
48.2082,16.3738,AT,Austria,Vienna,37.252.190.222
53.3498,-6.26031,IE,Ireland,Dublin,34.244.236.193
39.0438,-77.4874,US,United States,Ashburn,52.0.54.100
50.7012,3.21501,FR,France,Wattrelos,162.19.37.247
