latitude,longitude,Country Code,Country,City,IP Address
50.1109,8.68213,DE,Germany,Frankfurt am Main,52.58.243.225
39.0438,-77.4874,US,United States,Ashburn,54.196.32.74
49.4423,11.0191,DE,Germany,Nuremberg,152.53.22.28
51.4808,0.174675,GB,United Kingdom,Erith,57.128.188.88
39.0438,-77.4874,US,United States,Ashburn,3.91.91.237
39.018,-77.539,US,United States,Ashburn,150.136.127.40
53.3498,-6.26031,IE,Ireland,Dublin,34.244.236.193
