latitude,longitude,Country Code,Country,City,IP Address
51.4808,0.174675,GB,United Kingdom,Erith,57.128.188.88
50.3986,8.07958,DE,Germany,Limburg an der Lahn,141.95.124.216
38.9071,-77.0368,US,United States,Washington,34.86.160.44
39.018,-77.539,US,United States,Ashburn,132.145.202.110
51.5074,-0.1196,GB,United Kingdom,London,198.244.253.243
48.5734,7.75211,FR,France,Strasbourg,162.19.43.18
50.7012,3.21501,FR,France,Wattrelos,162.19.37.247
48.5734,7.75211,FR,France,Strasbourg,91.134.22.62
