latitude,longitude,Country Code,Country,City,IP Address
48.2906,16.3441,AT,Austria,Klosterneuburg,185.119.118.68
39.0438,-77.4874,US,United States,Ashburn,54.196.32.74
50.1109,8.68213,DE,Germany,Frankfurt am Main,52.58.243.225
43.6547,-79.3623,CA,Canada,Toronto,159.203.0.182
48.5734,7.75211,FR,France,Strasbourg,91.134.22.62
51.5074,-0.1196,GB,United Kingdom,London,198.244.253.243
48.8323,2.4075,FR,France,Paris,51.159.137.138
