latitude,longitude,Country Code,Country,City,IP Address
43.6547,-79.3623,CA,Canada,Toronto,143.198.46.130
48.5734,7.75211,FR,France,Strasbourg,162.19.43.6
39.0438,-77.4874,US,United States,Ashburn,54.196.32.74
51.5074,-0.1196,GB,United Kingdom,London,198.244.253.241
1.43508,103.804,SG,Singapore,Singapore,72.46.87.167
48.2082,16.3738,AT,Austria,Vienna,37.252.190.222
39.0438,-77.4874,US,United States,Ashburn,52.0.54.100
