latitude,longitude,Country Code,Country,City,IP Address
1.43508,103.804,SG,Singapore,Singapore,72.46.87.185
25.8119,-80.2318,US,United States,Miami,45.77.164.36
43.6547,-79.3623,CA,Canada,Toronto,159.203.6.120
37.5665,126.978,KR,South Korea,Seoul,52.79.171.57
39.0438,-77.4874,US,United States,Ashburn,52.0.54.100
37.3931,-121.962,US,United States,Santa Clara,64.227.110.67
39.018,-77.539,US,United States,Ashburn,132.145.202.110
51.5123,-0.0909,GB,United Kingdom,London,67.209.52.73
