latitude,longitude,Country Code,Country,City,IP Address
39.0438,-77.4874,US,United States,Ashburn,54.196.32.74
49.4423,11.0191,DE,Germany,Nuremberg,152.53.22.28
39.018,-77.539,US,United States,Ashburn,150.136.127.40
50.1109,8.68213,DE,Germany,Frankfurt am Main,52.58.243.225
40.8229,-74.4592,US,United States,Cedar Knolls,45.79.149.203
39.0438,-77.4874,US,United States,Ashburn,3.91.91.237
51.5074,-0.1196,GB,United Kingdom,London,198.244.253.241
