latitude,longitude,Country Code,Country,City,IP Address
50.1109,8.68213,DE,Germany,Frankfurt am Main,52.58.243.225
37.5665,126.978,KR,South Korea,Seoul,52.79.171.57
50.7012,3.21501,FR,France,Wattrelos,162.19.85.200
25.8119,-80.2318,US,United States,Miami,45.77.164.36
39.0438,-77.4874,US,United States,Ashburn,3.91.91.237
43.6547,-79.3623,CA,Canada,Toronto,159.203.6.120
49.4423,11.0191,DE,Germany,Nuremberg,152.53.22.28
48.1951,16.3483,AT,Austria,Vienna,89.58.16.139
