latitude,longitude,Country Code,Country,City,IP Address
39.0438,-77.4874,US,United States,Ashburn,52.0.54.100
50.7012,3.21501,FR,France,Wattrelos,162.19.37.247
48.2906,16.3441,AT,Austria,Klosterneuburg,185.119.118.68
50.475,12.365,DE,Germany,Falkenstein,49.12.150.240
34.0544,-118.2441,US,United States,Los Angeles,84.54.23.48
50.3878,8.07286,DE,Germany,Limburg an der Lahn,141.95.124.216
48.8323,2.4075,FR,France,Paris,51.159.137.138
