latitude,longitude,Country Code,Country,City,IP Address
50.1109,8.68213,DE,Germany,Frankfurt am Main,52.58.243.225
39.0438,-77.4874,US,United States,Ashburn,3.239.38.16
49.4423,11.0191,DE,Germany,Nuremberg,152.53.22.28
48.5734,7.75211,FR,France,Strasbourg,91.134.22.62
43.6547,-79.3623,CA,Canada,Toronto,159.203.6.120
39.0438,-77.4874,US,United States,Ashburn,54.91.222.127
39.0438,-77.4874,US,United States,Ashburn,3.91.91.237
43.6547,-79.3623,CA,Canada,Toronto,143.198.46.130
