latitude,longitude,Country Code,Country,City,IP Address
48.5734,7.75211,FR,France,Strasbourg,91.134.22.6
51.5074,-0.1196,GB,United Kingdom,London,198.244.253.241
39.018,-77.539,US,United States,Ashburn,150.136.127.40
-23.5335,-46.6359,BR,Brazil,São Paulo,177.54.147.193
39.018,-77.539,US,United States,Ashburn,132.145.202.110
43.6547,-79.3623,CA,Canada,Toronto,159.203.6.120
51.1878,6.8607,DE,Germany,Düsseldorf,84.54.23.48
