latitude,longitude,Country Code,Country,City,IP Address
51.5074,-0.1196,GB,United Kingdom,London,198.244.253.241
51.5074,-0.1196,GB,United Kingdom,London,198.244.253.243
43.6547,-79.3623,CA,Canada,Toronto,143.198.46.130
51.5123,-0.0909,GB,United Kingdom,London,67.209.52.73
39.0438,-77.4874,US,United States,Ashburn,54.196.32.74
48.5734,7.75211,FR,France,Strasbourg,162.19.43.18
53.3498,-6.26031,IE,Ireland,Dublin,34.244.236.193
39.018,-77.539,US,United States,Ashburn,132.145.202.110
49.4423,11.0191,DE,Germany,Nuremberg,152.53.22.28
