latitude,longitude,Country Code,Country,City,IP Address
50.1109,8.68213,DE,Germany,Frankfurt am Main,52.58.243.225
48.5734,7.75211,FR,France,Strasbourg,162.19.43.18
39.018,-77.539,US,United States,Ashburn,150.136.127.40
39.0438,-77.4874,US,United States,Ashburn,3.91.91.237
39.018,-77.539,US,United States,Ashburn,132.145.202.110
51.5074,-0.1196,GB,United Kingdom,London,198.244.253.243
48.2082,16.3738,AT,Austria,Vienna,37.252.190.222
