latitude,longitude,Country Code,Country,City,IP Address
50.4777,12.3649,DE,Germany,Falkenstein,49.12.150.240
48.2906,16.3441,AT,Austria,Klosterneuburg,185.119.118.68
48.5734,7.75211,FR,France,Strasbourg,162.19.43.18
50.7012,3.21501,FR,France,Wattrelos,162.19.37.247
51.5074,-0.1196,GB,United Kingdom,London,198.244.253.60
