latitude,longitude,Country Code,Country,City,IP Address
43.6547,-79.3623,CA,Canada,Toronto,143.198.46.130
39.0438,-77.4874,US,United States,Ashburn,44.197.172.154
51.5074,-0.1196,GB,United Kingdom,London,198.244.253.243
51.4808,0.174675,GB,United Kingdom,Erith,57.128.188.88
39.0438,-77.4874,US,United States,Ashburn,3.91.91.237
48.5734,7.75211,FR,France,Strasbourg,91.134.22.6
