latitude,longitude,Country Code,Country,City,IP Address
32.8771,-80.013,US,United States,North Charleston,35.185.91.239
39.018,-77.539,US,United States,Ashburn,150.136.127.40
52.352,4.9392,NL,The Netherlands,Amsterdam,84.32.186.15
39.0438,-77.4874,US,United States,Ashburn,3.239.38.16
51.5074,-0.1196,GB,United Kingdom,London,198.244.253.60
48.2906,16.3441,AT,Austria,Klosterneuburg,185.119.118.68
