latitude,longitude,Country Code,Country,City,IP Address
48.5734,7.75211,FR,France,Strasbourg,91.134.22.62
51.5074,-0.1196,GB,United Kingdom,London,198.244.253.241
39.018,-77.539,US,United States,Ashburn,150.136.127.40
39.0438,-77.4874,US,United States,Ashburn,3.239.38.16
53.3498,-6.26031,IE,Ireland,Dublin,34.244.236.193
50.4777,12.3649,DE,Germany,Falkenstein,49.12.150.240
