latitude,longitude,Country Code,Country,City,IP Address
50.3986,8.07958,DE,Germany,Limburg an der Lahn,141.95.124.216
48.1951,16.3483,AT,Austria,Vienna,89.58.16.139
49.4521,11.0767,DE,Germany,Nuremberg,88.198.36.237
51.5074,-0.1196,GB,United Kingdom,London,198.244.253.60
48.8323,2.4075,FR,France,Paris,51.159.137.138
50.475,12.365,DE,Germany,Falkenstein,49.12.150.240
