latitude,longitude,Country Code,Country,City,IP Address
49.4423,11.0191,DE,Germany,Nuremberg,152.53.22.28
39.0438,-77.4874,US,United States,Ashburn,3.91.91.237
25.8119,-80.2318,US,United States,Miami,45.77.164.36
50.1109,8.68213,DE,Germany,Frankfurt am Main,52.58.243.225
51.5074,-0.1196,GB,United Kingdom,London,198.244.253.60
