latitude,longitude,Country Code,Country,City,IP Address
50.1109,8.68213,DE,Germany,Frankfurt am Main,52.58.243.225
43.6547,-79.3623,CA,Canada,Toronto,159.203.0.182
50.4777,12.3649,DE,Germany,Falkenstein,49.12.150.240
51.5074,-0.1196,GB,United Kingdom,London,198.244.253.60
39.0438,-77.4874,US,United States,Ashburn,52.0.54.100
53.3498,-6.26031,IE,Ireland,Dublin,34.244.236.193
40.0992,-83.1141,US,United States,Dublin,3.132.241.37
48.8323,2.4075,FR,France,Paris,51.159.137.138
