latitude,longitude,Country Code,Country,City,IP Address
25.8119,-80.2318,US,United States,Miami,45.77.164.36
51.4808,0.174675,GB,United Kingdom,Erith,57.128.188.88
48.1951,16.3483,AT,Austria,Vienna,89.58.16.139
39.0438,-77.4874,US,United States,Ashburn,52.0.54.100
39.018,-77.539,US,United States,Ashburn,150.136.127.40
50.7012,3.21501,FR,France,Wattrelos,162.19.37.247
40.8229,-74.4592,US,United States,Cedar Knolls,45.79.149.203
39.0438,-77.4874,US,United States,Ashburn,3.239.38.16
40.0992,-83.1141,US,United States,Dublin,3.132.241.37
