latitude,longitude,Country Code,Country,City,IP Address
39.0438,-77.4874,US,United States,Ashburn,54.196.32.74
48.1951,16.3483,AT,Austria,Vienna,89.58.16.139
32.8771,-80.013,US,United States,North Charleston,35.185.91.239
49.4423,11.0191,DE,Germany,Nuremberg,152.53.22.28
39.0438,-77.4874,US,United States,Ashburn,3.91.91.237
1.43508,103.804,SG,Singapore,Singapore,72.46.87.185
49.4527,11.0783,DE,Germany,Nuremberg,88.198.36.237
51.5074,-0.1196,GB,United Kingdom,London,198.244.253.241
