latitude,longitude,Country Code,Country,City,IP Address
51.5123,-0.0909,GB,United Kingdom,London,67.209.52.73
39.018,-77.539,US,United States,Ashburn,150.136.127.40
51.5074,-0.1196,GB,United Kingdom,London,198.244.253.243
48.5734,7.75211,FR,France,Strasbourg,91.134.22.62
25.8119,-80.2318,US,United States,Miami,45.77.164.36
43.6547,-79.3623,CA,Canada,Toronto,159.203.6.120
49.4527,11.0783,DE,Germany,Nuremberg,88.198.36.237
51.4808,0.174675,GB,United Kingdom,Erith,57.128.188.88
43.6547,-79.3623,CA,Canada,Toronto,143.198.46.130
