latitude,longitude,Country Code,Country,City,IP Address
40.0992,-83.1141,US,United States,Dublin,3.132.241.37
49.4423,11.0191,DE,Germany,Nuremberg,152.53.22.28
39.0438,-77.4874,US,United States,Ashburn,3.91.91.237
51.1878,6.8607,DE,Germany,Düsseldorf,84.54.23.48
-23.5335,-46.6359,BR,Brazil,São Paulo,177.54.147.193
39.0438,-77.4874,US,United States,Ashburn,54.91.222.127
51.5074,-0.1196,GB,United Kingdom,London,198.244.253.241
50.7012,3.21501,FR,France,Wattrelos,162.19.37.247
