latitude,longitude,Country Code,Country,City,IP Address
37.3931,-121.962,US,United States,Santa Clara,64.227.110.67
37.5665,126.978,KR,South Korea,Seoul,52.79.171.57
52.352,4.9392,NL,The Netherlands,Amsterdam,84.32.186.15
39.0438,-77.4874,US,United States,Ashburn,3.239.38.16
43.6547,-79.3623,CA,Canada,Toronto,159.203.0.182
48.8323,2.4075,FR,France,Paris,51.159.137.138
50.3986,8.07958,DE,Germany,Limburg an der Lahn,141.95.124.216
