latitude,longitude,Country Code,Country,City,IP Address
43.6547,-79.3623,CA,Canada,Toronto,143.198.46.130
43.6547,-79.3623,CA,Canada,Toronto,159.203.0.182
43.6547,-79.3623,CA,Canada,Toronto,159.203.6.120
1.43508,103.804,SG,Singapore,Singapore,72.46.87.167
39.0438,-77.4874,US,United States,Ashburn,54.196.32.74
39.018,-77.539,US,United States,Ashburn,132.145.202.110
39.0438,-77.4874,US,United States,Ashburn,3.239.38.16
51.5123,-0.0909,GB,United Kingdom,London,67.209.52.73
50.7012,3.21501,FR,France,Wattrelos,162.19.85.200
