latitude,longitude,Country Code,Country,City,IP Address
41.0416,-73.9572,US,United States,Orangeburg,89.117.78.187
39.0438,-77.4874,US,United States,Ashburn,54.196.32.74
48.2906,16.3441,AT,Austria,Klosterneuburg,185.119.118.68
52.352,4.9392,NL,The Netherlands,Amsterdam,84.32.186.15
50.4777,12.3649,DE,Germany,Falkenstein,49.12.150.240
48.5734,7.75211,FR,France,Strasbourg,91.134.22.62
