latitude,longitude,Country Code,Country,City,IP Address
49.4423,11.0191,DE,Germany,Nuremberg,152.53.22.28
39.018,-77.539,US,United States,Ashburn,150.136.127.40
48.1951,16.3483,AT,Austria,Vienna,89.58.16.139
48.5734,7.75211,FR,France,Strasbourg,162.19.43.18
51.5123,-0.0909,GB,United Kingdom,London,67.209.52.73
25.8119,-80.2318,US,United States,Miami,45.77.164.36
49.4527,11.0783,DE,Germany,Nuremberg,88.198.36.237
48.5734,7.75211,FR,France,Strasbourg,91.134.22.62
