latitude,longitude,Country Code,Country,City,IP Address
50.4777,12.3649,DE,Germany,Falkenstein,49.12.150.240
50.3986,8.07958,DE,Germany,Limburg an der Lahn,141.95.124.216
49.4423,11.0191,DE,Germany,Nuremberg,152.53.22.28
25.8119,-80.2318,US,United States,Miami,45.77.164.36
1.43508,103.804,SG,Singapore,Singapore,72.46.87.185
48.5734,7.75211,FR,France,Strasbourg,162.19.43.18
40.0992,-83.1141,US,United States,Dublin,3.132.241.37
