latitude,longitude,Country Code,Country,City,IP Address
50.3878,8.07286,DE,Germany,Limburg an der Lahn,141.95.124.216
48.2906,16.3441,AT,Austria,Klosterneuburg,185.119.118.68
49.4521,11.0767,DE,Germany,Nuremberg,88.198.36.237
37.5665,126.978,KR,South Korea,Seoul,52.79.171.57
40.8229,-74.4592,US,United States,Cedar Knolls,45.79.149.203
50.7012,3.21501,FR,France,Wattrelos,162.19.37.247
