latitude,longitude,Country Code,Country,City,IP Address
39.0438,-77.4874,US,United States,Ashburn,3.91.91.237
48.2906,16.3441,AT,Austria,Klosterneuburg,185.119.118.68
50.7012,3.21501,FR,France,Wattrelos,141.94.3.10
49.4423,11.0191,DE,Germany,Nuremberg,152.53.22.28
53.3498,-6.26031,IE,Ireland,Dublin,34.244.236.193
51.4808,0.174675,GB,United Kingdom,Erith,57.128.188.88
