latitude,longitude,Country Code,Country,City,IP Address
39.018,-77.539,US,United States,Ashburn,150.136.127.40
50.7012,3.21501,FR,France,Wattrelos,162.19.37.247
43.6547,-79.3623,CA,Canada,Toronto,143.198.46.130
48.2082,16.3738,AT,Austria,Vienna,37.252.190.222
52.352,4.9392,NL,The Netherlands,Amsterdam,84.32.186.15
