latitude,longitude,Country Code,Country,City,IP Address
48.2906,16.3441,AT,Austria,Klosterneuburg,185.119.118.68
39.0438,-77.4874,US,United States,Ashburn,52.0.54.100
48.1951,16.3483,AT,Austria,Vienna,89.58.16.139
34.0544,-118.2441,US,United States,Los Angeles,84.54.23.48
40.8229,-74.4592,US,United States,Cedar Knolls,45.79.149.203
39.0438,-77.4874,US,United States,Ashburn,3.91.91.237
51.5123,-0.0909,GB,United Kingdom,London,67.209.52.73
48.8323,2.4075,FR,France,Paris,51.159.137.138
50.7012,3.21501,FR,France,Wattrelos,162.19.37.247
