latitude,longitude,Country Code,Country,City,IP Address
48.1951,16.3483,AT,Austria,Vienna,89.58.16.139
48.5734,7.75211,FR,France,Strasbourg,162.19.43.18
39.0438,-77.4874,US,United States,Ashburn,52.0.54.100
49.4527,11.0783,DE,Germany,Nuremberg,88.198.36.237
39.0438,-77.4874,US,United States,Ashburn,3.91.91.237
39.0438,-77.4874,US,United States,Ashburn,54.91.222.127
48.2082,16.3738,AT,Austria,Vienna,37.252.190.222
50.1109,8.68213,DE,Germany,Frankfurt am Main,52.58.243.225
43.6547,-79.3623,CA,Canada,Toronto,159.203.6.120
