latitude,longitude,Country Code,Country,City,IP Address
1.43508,103.804,SG,Singapore,Singapore,72.46.87.185
40.0992,-83.1141,US,United States,Dublin,3.132.241.37
41.0416,-73.9572,US,United States,Orangeburg,89.117.78.187
39.0438,-77.4874,US,United States,Ashburn,54.196.32.74
43.6547,-79.3623,CA,Canada,Toronto,159.203.6.120
51.5074,-0.1196,GB,United Kingdom,London,198.244.253.243
