latitude,longitude,Country Code,Country,City,IP Address
48.2906,16.3441,AT,Austria,Klosterneuburg,185.119.118.68
49.4423,11.0191,DE,Germany,Nuremberg,152.53.22.28
39.018,-77.539,US,United States,Ashburn,132.145.202.110
43.6547,-79.3623,CA,Canada,Toronto,159.203.0.182
48.5734,7.75211,FR,France,Strasbourg,91.134.22.6
