latitude,longitude,Country Code,Country,City,IP Address
43.6547,-79.3623,CA,Canada,Toronto,159.203.0.182
48.5734,7.75211,FR,France,Strasbourg,162.19.43.18
50.4777,12.3649,DE,Germany,Falkenstein,49.12.150.240
48.5734,7.75211,FR,France,Strasbourg,162.19.43.6
40.0992,-83.1141,US,United States,Dublin,3.132.241.37
1.43508,103.804,SG,Singapore,Singapore,72.46.87.185
