latitude,longitude,Country Code,Country,City,IP Address
37.5665,126.978,KR,South Korea,Seoul,52.79.171.57
39.0438,-77.4874,US,United States,Ashburn,3.91.91.237
43.6547,-79.3623,CA,Canada,Toronto,159.203.6.120
39.018,-77.539,US,United States,Ashburn,129.213.156.73
53.3498,-6.26031,IE,Ireland,Dublin,34.244.236.193
39.0438,-77.4874,US,United States,Ashburn,54.91.222.127
39.0438,-77.4874,US,United States,Ashburn,3.239.38.16
40.8229,-74.4592,US,United States,Cedar Knolls,45.79.149.203
50.7012,3.21501,FR,France,Wattrelos,141.94.3.10
