latitude,longitude,Country Code,Country,City,IP Address
37.5665,126.978,KR,South Korea,Seoul,52.79.171.57
48.5734,7.75211,FR,France,Strasbourg,91.134.22.6
32.8771,-80.013,US,United States,North Charleston,35.185.91.239
50.1109,8.68213,DE,Germany,Frankfurt am Main,52.58.243.225
53.3498,-6.26031,IE,Ireland,Dublin,34.244.236.193
39.018,-77.539,US,United States,Ashburn,150.136.127.40
48.2082,16.3738,AT,Austria,Vienna,37.252.190.222
43.6547,-79.3623,CA,Canada,Toronto,159.203.6.120
