latitude,longitude,Country Code,Country,City,IP Address
52.352,4.9392,NL,The Netherlands,Amsterdam,84.32.186.15
37.5665,126.978,KR,South Korea,Seoul,52.79.171.57
50.3878,8.07286,DE,Germany,Limburg an der Lahn,141.95.124.216
48.8323,2.4075,FR,France,Paris,51.159.137.138
40.8229,-74.4592,US,United States,Cedar Knolls,45.79.149.203
51.5123,-0.0909,GB,United Kingdom,London,67.209.52.73
51.5074,-0.1196,GB,United Kingdom,London,198.244.253.60
49.4521,11.0767,DE,Germany,Nuremberg,88.198.36.237
39.0438,-77.4874,US,United States,Ashburn,54.91.222.127
