latitude,longitude,Country Code,Country,City,IP Address
48.2082,16.3738,AT,Austria,Vienna,37.252.190.222
37.5665,126.978,KR,South Korea,Seoul,52.79.171.57
1.43508,103.804,SG,Singapore,Singapore,72.46.87.185
39.0438,-77.4874,US,United States,Ashburn,44.197.172.154
43.6547,-79.3623,CA,Canada,Toronto,143.198.46.130
