latitude,longitude,Country Code,Country,City,IP Address
51.4808,0.174675,GB,United Kingdom,Erith,57.128.188.88
51.5074,-0.1196,GB,United Kingdom,London,198.244.253.241
43.6547,-79.3623,CA,Canada,Toronto,159.203.6.120
37.5665,126.978,KR,South Korea,Seoul,52.79.171.57
51.5123,-0.0909,GB,United Kingdom,London,67.209.52.73
48.5734,7.75211,FR,France,Strasbourg,162.19.43.18
