latitude,longitude,Country Code,Country,City,IP Address
1.43508,103.804,SG,Singapore,Singapore,72.46.87.185
40.0992,-83.1141,US,United States,Dublin,3.132.241.37
38.9071,-77.0368,US,United States,Washington,34.86.160.44
39.018,-77.539,US,United States,Ashburn,132.145.202.110
52.352,4.9392,NL,The Netherlands,Amsterdam,84.32.186.15
37.5665,126.978,KR,South Korea,Seoul,52.79.171.57
