latitude,longitude,Country Code,Country,City,IP Address
39.0438,-77.4874,US,United States,Ashburn,52.0.54.100
48.5734,7.75211,FR,France,Strasbourg,91.134.22.62
49.4423,11.0191,DE,Germany,Nuremberg,152.53.22.28
39.0438,-77.4874,US,United States,Ashburn,3.239.38.16
48.5734,7.75211,FR,France,Strasbourg,162.19.43.18
50.7012,3.21501,FR,France,Wattrelos,162.19.37.247
48.8323,2.4075,FR,France,Paris,51.159.137.138
