latitude,longitude,Country Code,Country,City,IP Address
48.2906,16.3441,AT,Austria,Klosterneuburg,185.119.118.68
-23.5335,-46.6359,BR,Brazil,São Paulo,177.54.147.193
51.5074,-0.1196,GB,United Kingdom,London,198.244.253.243
50.1109,8.68213,DE,Germany,Frankfurt am Main,52.58.243.225
51.5074,-0.1196,GB,United Kingdom,London,198.244.253.60
52.352,4.9392,NL,The Netherlands,Amsterdam,84.32.186.15
50.3986,8.07958,DE,Germany,Limburg an der Lahn,141.95.124.216
51.5074,-0.1196,GB,United Kingdom,London,198.244.253.241
51.1878,6.8607,DE,Germany,Düsseldorf,84.54.23.48
