latitude,longitude,Country Code,Country,City,IP Address
49.4423,11.0191,DE,Germany,Nuremberg,152.53.22.28
1.43508,103.804,SG,Singapore,Singapore,72.46.87.185
32.8771,-80.013,US,United States,North Charleston,35.185.91.239
53.3498,-6.26031,IE,Ireland,Dublin,34.244.236.193
1.43508,103.804,SG,Singapore,Singapore,72.46.87.167
49.4527,11.0783,DE,Germany,Nuremberg,88.198.36.237
39.0438,-77.4874,US,United States,Ashburn,3.239.38.16
39.018,-77.539,US,United States,Ashburn,129.213.156.73
