latitude,longitude,Country Code,Country,City,IP Address
48.1951,16.3483,AT,Austria,Vienna,89.58.16.139
48.2906,16.3441,AT,Austria,Klosterneuburg,185.119.118.68
52.352,4.9392,NL,The Netherlands,Amsterdam,84.32.186.15
37.5665,126.978,KR,South Korea,Seoul,52.79.171.57
34.0544,-118.2441,US,United States,Los Angeles,84.54.23.48
49.4521,11.0767,DE,Germany,Nuremberg,88.198.36.237
50.7012,3.21501,FR,France,Wattrelos,162.19.37.247
39.0438,-77.4874,US,United States,Ashburn,3.91.91.237
48.2082,16.3738,AT,Austria,Vienna,37.252.190.222
