latitude,longitude,Country Code,Country,City,IP Address
49.4423,11.0191,DE,Germany,Nuremberg,152.53.22.28
-23.5335,-46.6359,BR,Brazil,São Paulo,177.54.147.193
39.0438,-77.4874,US,United States,Ashburn,52.0.54.100
40.0992,-83.1141,US,United States,Dublin,3.132.241.37
43.6547,-79.3623,CA,Canada,Toronto,159.203.0.182
51.1878,6.8607,DE,Germany,Düsseldorf,84.54.23.48
53.3498,-6.26031,IE,Ireland,Dublin,34.244.236.193
