latitude,longitude,Country Code,Country,City,IP Address
53.3498,-6.26031,IE,Ireland,Dublin,34.244.236.193
50.4777,12.3649,DE,Germany,Falkenstein,49.12.150.240
48.2082,16.3738,AT,Austria,Vienna,37.252.190.222
1.43508,103.804,SG,Singapore,Singapore,72.46.87.167
37.3931,-121.962,US,United States,Santa Clara,64.227.110.67
43.6547,-79.3623,CA,Canada,Toronto,159.203.0.182
39.0438,-77.4874,US,United States,Ashburn,54.196.32.74
