latitude,longitude,Country Code,Country,City,IP Address
39.018,-77.539,US,United States,Ashburn,150.136.127.40
48.1951,16.3483,AT,Austria,Vienna,89.58.16.139
49.4521,11.0767,DE,Germany,Nuremberg,88.198.36.237
43.6547,-79.3623,CA,Canada,Toronto,159.203.6.120
40.0992,-83.1141,US,United States,Dublin,3.132.241.37
