latitude,longitude,Country Code,Country,City,IP Address
39.0438,-77.4874,US,United States,Ashburn,3.91.91.237
48.2906,16.3441,AT,Austria,Klosterneuburg,185.119.118.68
51.5123,-0.0909,GB,United Kingdom,London,67.209.52.73
48.2082,16.3738,AT,Austria,Vienna,37.252.190.222
40.8229,-74.4592,US,United States,Cedar Knolls,45.79.149.203
