latitude,longitude,Country Code,Country,City,IP Address
49.4423,11.0191,DE,Germany,Nuremberg,152.53.22.28
39.0438,-77.4874,US,United States,Ashburn,54.196.32.74
48.1951,16.3483,AT,Austria,Vienna,89.58.16.139
48.5734,7.75211,FR,France,Strasbourg,91.134.22.6
51.4808,0.174675,GB,United Kingdom,Erith,57.128.188.88
1.43508,103.804,SG,Singapore,Singapore,72.46.87.167
41.0416,-73.9572,US,United States,Orangeburg,89.117.78.187
50.7012,3.21501,FR,France,Wattrelos,141.94.3.10
