latitude,longitude,Country Code,Country,City,IP Address
49.4423,11.0191,DE,Germany,Nuremberg,152.53.22.28
39.0438,-77.4874,US,United States,Ashburn,3.91.91.237
40.0992,-83.1141,US,United States,Dublin,3.132.241.37
51.5074,-0.1196,GB,United Kingdom,London,198.244.253.243
48.5734,7.75211,FR,France,Strasbourg,162.19.43.18
48.8323,2.4075,FR,France,Paris,51.159.137.138
37.5665,126.978,KR,South Korea,Seoul,52.79.171.57
