latitude,longitude,Country Code,Country,City,IP Address
51.5123,-0.0909,GB,United Kingdom,London,67.209.52.73
48.5734,7.75211,FR,France,Strasbourg,162.19.43.18
48.5734,7.75211,FR,France,Strasbourg,91.134.22.62
51.5074,-0.1196,GB,United Kingdom,London,198.244.253.241
48.1951,16.3483,AT,Austria,Vienna,89.58.16.139
40.0992,-83.1141,US,United States,Dublin,3.132.241.37
39.018,-77.539,US,United States,Ashburn,150.136.127.40
52.352,4.9392,NL,The Netherlands,Amsterdam,84.32.186.15
40.8229,-74.4592,US,United States,Cedar Knolls,45.79.149.203
