latitude,longitude,Country Code,Country,City,IP Address
48.8323,2.4075,FR,France,Paris,51.159.137.138
48.5734,7.75211,FR,France,Strasbourg,162.19.43.18
39.0438,-77.4874,US,United States,Ashburn,3.91.91.237
49.4423,11.0191,DE,Germany,Nuremberg,152.53.22.28
38.9071,-77.0368,US,United States,Washington,34.86.160.44
