latitude,longitude,Country Code,Country,City,IP Address
39.0438,-77.4874,US,United States,Ashburn,3.91.91.237
43.6547,-79.3623,CA,Canada,Toronto,159.203.6.120
39.018,-77.539,US,United States,Ashburn,150.136.127.40
25.8119,-80.2318,US,United States,Miami,45.77.164.36
50.7012,3.21501,FR,France,Wattrelos,162.19.37.247
49.4527,11.0783,DE,Germany,Nuremberg,88.198.36.237
39.0438,-77.4874,US,United States,Ashburn,52.0.54.100
