latitude,longitude,Country Code,Country,City,IP Address
49.4423,11.0191,DE,Germany,Nuremberg,152.53.22.28
39.018,-77.539,US,United States,Ashburn,150.136.127.40
48.1951,16.3483,AT,Austria,Vienna,89.58.16.139
51.5074,-0.1196,GB,United Kingdom,London,198.244.253.241
48.5734,7.75211,FR,France,Strasbourg,162.19.43.18
37.5665,126.978,KR,South Korea,Seoul,52.79.171.57
49.4527,11.0783,DE,Germany,Nuremberg,88.198.36.237
40.8229,-74.4592,US,United States,Cedar Knolls,45.79.149.203
