latitude,longitude,Country Code,Country,City,IP Address
39.0438,-77.4874,US,United States,Ashburn,44.197.172.154
25.8119,-80.2318,US,United States,Miami,45.77.164.36
50.3986,8.07958,DE,Germany,Limburg an der Lahn,141.95.124.216
51.1878,6.8607,DE,Germany,Düsseldorf,84.54.23.48
40.0992,-83.1141,US,United States,Dublin,3.132.241.37
48.5734,7.75211,FR,France,Strasbourg,91.134.22.62
50.4777,12.3649,DE,Germany,Falkenstein,49.12.150.240
-23.5335,-46.6359,BR,Brazil,São Paulo,177.54.147.193
39.0438,-77.4874,US,United States,Ashburn,54.91.222.127
