latitude,longitude,Country Code,Country,City,IP Address
51.5123,-0.0909,GB,United Kingdom,London,67.209.52.73
1.43508,103.804,SG,Singapore,Singapore,72.46.87.185
51.4808,0.174675,GB,United Kingdom,Erith,57.128.188.88
1.43508,103.804,SG,Singapore,Singapore,72.46.87.167
39.0438,-77.4874,US,United States,Ashburn,54.91.222.127
48.2906,16.3441,AT,Austria,Klosterneuburg,185.119.118.68
39.0438,-77.4874,US,United States,Ashburn,3.91.91.237
37.5665,126.978,KR,South Korea,Seoul,52.79.171.57
43.6547,-79.3623,CA,Canada,Toronto,143.198.46.130
