latitude,longitude,Country Code,Country,City,IP Address
40.0992,-83.1141,US,United States,Dublin,3.132.241.37
39.0438,-77.4874,US,United States,Ashburn,54.196.32.74
51.5074,-0.1196,GB,United Kingdom,London,198.244.253.241
37.3931,-121.962,US,United States,Santa Clara,64.227.110.67
50.3986,8.07958,DE,Germany,Limburg an der Lahn,141.95.124.216
51.5123,-0.0909,GB,United Kingdom,London,67.209.52.73
51.4808,0.174675,GB,United Kingdom,Erith,57.128.188.88
