latitude,longitude,Country Code,Country,City,IP Address
43.6547,-79.3623,CA,Canada,Toronto,143.198.46.130
51.4808,0.174675,GB,United Kingdom,Erith,57.128.188.88
48.2906,16.3441,AT,Austria,Klosterneuburg,185.119.118.68
50.1109,8.68213,DE,Germany,Frankfurt am Main,52.58.243.225
39.018,-77.539,US,United States,Ashburn,150.136.127.40
39.0438,-77.4874,US,United States,Ashburn,54.91.222.127
53.3498,-6.26031,IE,Ireland,Dublin,34.244.236.193
39.0438,-77.4874,US,United States,Ashburn,3.91.91.237
50.7012,3.21501,FR,France,Wattrelos,141.94.3.10
