latitude,longitude,Country Code,Country,City,IP Address
39.0438,-77.4874,US,United States,Ashburn,3.91.91.237
48.2906,16.3441,AT,Austria,Klosterneuburg,185.119.118.68
48.2082,16.3738,AT,Austria,Vienna,37.252.190.222
50.3878,8.07286,DE,Germany,Limburg an der Lahn,141.95.124.216
52.352,4.9392,NL,The Netherlands,Amsterdam,84.32.186.15
51.5123,-0.0909,GB,United Kingdom,London,67.209.52.73
48.1951,16.3483,AT,Austria,Vienna,89.58.16.139
