latitude,longitude,Country Code,Country,City,IP Address
48.2906,16.3441,AT,Austria,Klosterneuburg,185.119.118.68
39.0438,-77.4874,US,United States,Ashburn,54.91.222.127
52.352,4.9392,NL,The Netherlands,Amsterdam,84.32.186.15
48.2082,16.3738,AT,Austria,Vienna,37.252.190.222
48.1951,16.3483,AT,Austria,Vienna,89.58.16.139
50.7012,3.21501,FR,France,Wattrelos,162.19.37.247
