latitude,longitude,Country Code,Country,City,IP Address
25.8119,-80.2318,US,United States,Miami,45.77.164.36
41.0416,-73.9572,US,United States,Orangeburg,89.117.78.187
39.0438,-77.4874,US,United States,Ashburn,3.91.91.237
48.2906,16.3441,AT,Austria,Klosterneuburg,185.119.118.68
50.7012,3.21501,FR,France,Wattrelos,162.19.85.200
39.018,-77.539,US,United States,Ashburn,129.213.156.73
48.5734,7.75211,FR,France,Strasbourg,91.134.22.6
50.3986,8.07958,DE,Germany,Limburg an der Lahn,141.95.124.216
50.1109,8.68213,DE,Germany,Frankfurt am Main,52.58.243.225
