latitude,longitude,Country Code,Country,City,IP Address
39.0438,-77.4874,US,United States,Ashburn,3.239.38.16
51.5123,-0.0909,GB,United Kingdom,London,67.209.52.73
48.5734,7.75211,FR,France,Strasbourg,91.134.22.62
50.7012,3.21501,FR,France,Wattrelos,162.19.37.247
50.3986,8.07958,DE,Germany,Limburg an der Lahn,141.95.124.216
43.6547,-79.3623,CA,Canada,Toronto,159.203.6.120
40.0992,-83.1141,US,United States,Dublin,3.132.241.37
