latitude,longitude,Country Code,Country,City,IP Address
40.8229,-74.4592,US,United States,Cedar Knolls,45.79.149.203
39.0438,-77.4874,US,United States,Ashburn,52.0.54.100
39.0438,-77.4874,US,United States,Ashburn,54.91.222.127
48.8323,2.4075,FR,France,Paris,51.159.137.138
49.4423,11.0191,DE,Germany,Nuremberg,152.53.22.28
50.3878,8.07286,DE,Germany,Limburg an der Lahn,141.95.124.216
37.5665,126.978,KR,South Korea,Seoul,52.79.171.57
50.475,12.365,DE,Germany,Falkenstein,49.12.150.240
52.352,4.9392,NL,The Netherlands,Amsterdam,84.32.186.15
