latitude,longitude,Country Code,Country,City,IP Address
51.5074,-0.1196,GB,United Kingdom,London,198.244.253.241
50.7012,3.21501,FR,France,Wattrelos,141.94.3.10
39.0438,-77.4874,US,United States,Ashburn,3.91.91.237
25.8119,-80.2318,US,United States,Miami,45.77.164.36
39.0438,-77.4874,US,United States,Ashburn,54.91.222.127
50.4777,12.3649,DE,Germany,Falkenstein,49.12.150.240
48.1951,16.3483,AT,Austria,Vienna,89.58.16.139
