latitude,longitude,Country Code,Country,City,IP Address
48.2906,16.3441,AT,Austria,Klosterneuburg,185.119.118.68
51.4808,0.174675,GB,United Kingdom,Erith,57.128.188.88
48.1951,16.3483,AT,Austria,Vienna,89.58.16.139
39.018,-77.539,US,United States,Ashburn,150.136.127.40
50.4777,12.3649,DE,Germany,Falkenstein,49.12.150.240
43.6547,-79.3623,CA,Canada,Toronto,143.198.46.130
43.6547,-79.3623,CA,Canada,Toronto,159.203.6.120
49.4423,11.0191,DE,Germany,Nuremberg,152.53.22.28
43.6547,-79.3623,CA,Canada,Toronto,159.203.0.182
