latitude,longitude,Country Code,Country,City,IP Address
43.6547,-79.3623,CA,Canada,Toronto,143.198.46.130
39.018,-77.539,US,United States,Ashburn,150.136.127.40
39.0438,-77.4874,US,United States,Ashburn,52.0.54.100
49.4423,11.0191,DE,Germany,Nuremberg,152.53.22.28
51.5074,-0.1196,GB,United Kingdom,London,198.244.253.243
25.8119,-80.2318,US,United States,Miami,45.77.164.36
48.8323,2.4075,FR,France,Paris,51.159.137.138
