latitude,longitude,Country Code,Country,City,IP Address
51.5123,-0.0909,GB,United Kingdom,London,67.209.52.73
50.3878,8.07286,DE,Germany,Limburg an der Lahn,141.95.124.216
53.3498,-6.26031,IE,Ireland,Dublin,34.244.236.193
49.4423,11.0191,DE,Germany,Nuremberg,152.53.22.28
48.2082,16.3738,AT,Austria,Vienna,37.252.190.222
40.8229,-74.4592,US,United States,Cedar Knolls,45.79.149.203
39.0438,-77.4874,US,United States,Ashburn,3.91.91.237
