latitude,longitude,Country Code,Country,City,IP Address
51.5123,-0.0909,GB,United Kingdom,London,67.209.52.73
39.0438,-77.4874,US,United States,Ashburn,3.91.91.237
39.0438,-77.4874,US,United States,Ashburn,52.0.54.100
39.0438,-77.4874,US,United States,Ashburn,54.91.222.127
40.8229,-74.4592,US,United States,Cedar Knolls,45.79.149.203
48.1951,16.3483,AT,Austria,Vienna,89.58.16.139
48.2906,16.3441,AT,Austria,Klosterneuburg,185.119.118.68
