latitude,longitude,Country Code,Country,City,IP Address
43.6547,-79.3623,CA,Canada,Toronto,143.198.46.130
50.1109,8.68213,DE,Germany,Frankfurt am Main,52.58.243.225
40.0992,-83.1141,US,United States,Dublin,3.132.241.37
52.352,4.9392,NL,The Netherlands,Amsterdam,84.32.186.15
48.2082,16.3738,AT,Austria,Vienna,37.252.190.222
