latitude,longitude,Country Code,Country,City,IP Address
48.5734,7.75211,FR,France,Strasbourg,91.134.22.6
48.1951,16.3483,AT,Austria,Vienna,89.58.16.139
32.8771,-80.013,US,United States,North Charleston,35.185.91.239
50.3986,8.07958,DE,Germany,Limburg an der Lahn,141.95.124.216
51.4808,0.174675,GB,United Kingdom,Erith,57.128.188.88
50.1109,8.68213,DE,Germany,Frankfurt am Main,52.58.243.225
51.5074,-0.1196,GB,United Kingdom,London,198.244.253.243
37.5665,126.978,KR,South Korea,Seoul,52.79.171.57
43.6547,-79.3623,CA,Canada,Toronto,159.203.6.120
