latitude,longitude,Country Code,Country,City,IP Address
51.5074,-0.1196,GB,United Kingdom,London,198.244.253.243
39.0438,-77.4874,US,United States,Ashburn,3.239.38.16
25.8119,-80.2318,US,United States,Miami,45.77.164.36
51.5074,-0.1196,GB,United Kingdom,London,198.244.253.60
40.0992,-83.1141,US,United States,Dublin,3.132.241.37
48.8323,2.4075,FR,France,Paris,51.159.137.138
