latitude,longitude,Country Code,Country,City,IP Address
39.0438,-77.4874,US,United States,Ashburn,54.196.32.74
39.0438,-77.4874,US,United States,Ashburn,3.91.91.237
48.1951,16.3483,AT,Austria,Vienna,89.58.16.139
25.8119,-80.2318,US,United States,Miami,45.77.164.36
52.352,4.9392,NL,The Netherlands,Amsterdam,84.32.186.15
48.5734,7.75211,FR,France,Strasbourg,91.134.22.62
43.6547,-79.3623,CA,Canada,Toronto,159.203.0.182
49.4527,11.0783,DE,Germany,Nuremberg,88.198.36.237
41.0416,-73.9572,US,United States,Orangeburg,89.117.78.187
