latitude,longitude,Country Code,Country,City,IP Address
50.1109,8.68213,DE,Germany,Frankfurt am Main,52.58.243.225
25.8119,-80.2318,US,United States,Miami,45.77.164.36
39.0438,-77.4874,US,United States,Ashburn,3.91.91.237
39.0438,-77.4874,US,United States,Ashburn,3.239.38.16
51.5123,-0.0909,GB,United Kingdom,London,67.209.52.73
50.7012,3.21501,FR,France,Wattrelos,162.19.37.247
