latitude,longitude,Country Code,Country,City,IP Address
50.3878,8.07286,DE,Germany,Limburg an der Lahn,141.95.124.216
48.8323,2.4075,FR,France,Paris,51.159.137.138
34.0544,-118.2441,US,United States,Los Angeles,84.54.23.48
48.1951,16.3483,AT,Austria,Vienna,89.58.16.139
52.352,4.9392,NL,The Netherlands,Amsterdam,84.32.186.15
49.4521,11.0767,DE,Germany,Nuremberg,88.198.36.237
39.0438,-77.4874,US,United States,Ashburn,54.91.222.127
