latitude,longitude,Country Code,Country,City,IP Address
51.5074,-0.1196,GB,United Kingdom,London,198.244.253.241
50.7012,3.21501,FR,France,Wattrelos,162.19.85.200
43.6547,-79.3623,CA,Canada,Toronto,159.203.0.182
39.018,-77.539,US,United States,Ashburn,150.136.127.40
50.7012,3.21501,FR,France,Wattrelos,141.94.3.10
37.3931,-121.962,US,United States,Santa Clara,64.227.110.67
51.4808,0.174675,GB,United Kingdom,Erith,57.128.188.88
53.3498,-6.26031,IE,Ireland,Dublin,34.244.236.193
48.2082,16.3738,AT,Austria,Vienna,37.252.190.222
