latitude,longitude,Country Code,Country,City,IP Address
50.7012,3.21501,FR,France,Wattrelos,162.19.85.200
49.4423,11.0191,DE,Germany,Nuremberg,152.53.22.28
43.6547,-79.3623,CA,Canada,Toronto,159.203.6.120
48.2906,16.3441,AT,Austria,Klosterneuburg,185.119.118.68
51.1878,6.8607,DE,Germany,Düsseldorf,84.54.23.48
-23.5335,-46.6359,BR,Brazil,São Paulo,177.54.147.193
39.0438,-77.4874,US,United States,Ashburn,3.239.38.16
39.0438,-77.4874,US,United States,Ashburn,44.197.172.154
48.1951,16.3483,AT,Austria,Vienna,89.58.16.139
