latitude,longitude,Country Code,Country,City,IP Address
1.43508,103.804,SG,Singapore,Singapore,72.46.87.185
25.8119,-80.2318,US,United States,Miami,45.77.164.36
39.0438,-77.4874,US,United States,Ashburn,54.91.222.127
50.3986,8.07958,DE,Germany,Limburg an der Lahn,141.95.124.216
39.018,-77.539,US,United States,Ashburn,129.213.156.73
41.0416,-73.9572,US,United States,Orangeburg,89.117.78.187
