latitude,longitude,Country Code,Country,City,IP Address
52.352,4.9392,NL,The Netherlands,Amsterdam,84.32.186.15
51.5074,-0.1196,GB,United Kingdom,London,198.244.253.60
48.8323,2.4075,FR,France,Paris,51.159.137.138
37.5665,126.978,KR,South Korea,Seoul,52.79.171.57
40.8229,-74.4592,US,United States,Cedar Knolls,45.79.149.203
34.0544,-118.2441,US,United States,Los Angeles,84.54.23.48
51.5123,-0.0909,GB,United Kingdom,London,67.209.52.73
