latitude,longitude,Country Code,Country,City,IP Address
39.018,-77.539,US,United States,Ashburn,150.136.127.40
48.2906,16.3441,AT,Austria,Klosterneuburg,185.119.118.68
38.9071,-77.0368,US,United States,Washington,34.86.160.44
39.0438,-77.4874,US,United States,Ashburn,3.239.38.16
48.1951,16.3483,AT,Austria,Vienna,89.58.16.139
37.3931,-121.962,US,United States,Santa Clara,64.227.110.67
51.5074,-0.1196,GB,United Kingdom,London,198.244.253.60
