latitude,longitude,Country Code,Country,City,IP Address
39.018,-77.539,US,United States,Ashburn,150.136.127.40
49.4423,11.0191,DE,Germany,Nuremberg,152.53.22.28
43.6547,-79.3623,CA,Canada,Toronto,159.203.6.120
25.8119,-80.2318,US,United States,Miami,45.77.164.36
50.475,12.365,DE,Germany,Falkenstein,49.12.150.240
49.4521,11.0767,DE,Germany,Nuremberg,88.198.36.237
48.8323,2.4075,FR,France,Paris,51.159.137.138
