latitude,longitude,Country Code,Country,City,IP Address
37.5665,126.978,KR,South Korea,Seoul,52.79.171.57
43.6547,-79.3623,CA,Canada,Toronto,159.203.6.120
39.0438,-77.4874,US,United States,Ashburn,52.0.54.100
50.1109,8.68213,DE,Germany,Frankfurt am Main,52.58.243.225
48.8323,2.4075,FR,France,Paris,51.159.137.138
40.0992,-83.1141,US,United States,Dublin,3.132.241.37
51.5123,-0.0909,GB,United Kingdom,London,67.209.52.73
