latitude,longitude,Country Code,Country,City,IP Address
50.3986,8.07958,DE,Germany,Limburg an der Lahn,141.95.124.216
49.4423,11.0191,DE,Germany,Nuremberg,152.53.22.28
39.0438,-77.4874,US,United States,Ashburn,3.91.91.237
50.1109,8.68213,DE,Germany,Frankfurt am Main,52.58.243.225
48.5734,7.75211,FR,France,Strasbourg,162.19.43.18
43.6547,-79.3623,CA,Canada,Toronto,159.203.0.182
40.0992,-83.1141,US,United States,Dublin,3.132.241.37
53.3498,-6.26031,IE,Ireland,Dublin,34.244.236.193
48.8323,2.4075,FR,France,Paris,51.159.137.138
