latitude,longitude,Country Code,Country,City,IP Address
48.1951,16.3483,AT,Austria,Vienna,89.58.16.139
48.2082,16.3738,AT,Austria,Vienna,37.252.190.222
49.4521,11.0767,DE,Germany,Nuremberg,88.198.36.237
34.0544,-118.2441,US,United States,Los Angeles,84.54.23.48
50.7012,3.21501,FR,France,Wattrelos,162.19.37.247
40.8229,-74.4592,US,United States,Cedar Knolls,45.79.149.203
51.5074,-0.1196,GB,United Kingdom,London,198.244.253.60
