latitude,longitude,Country Code,Country,City,IP Address
-23.5335,-46.6359,BR,Brazil,São Paulo,177.54.147.193
51.5074,-0.1196,GB,United Kingdom,London,198.244.253.243
51.1878,6.8607,DE,Germany,Düsseldorf,84.54.23.48
39.0438,-77.4874,US,United States,Ashburn,52.0.54.100
39.0438,-77.4874,US,United States,Ashburn,3.239.38.16
51.5074,-0.1196,GB,United Kingdom,London,198.244.253.60
25.8119,-80.2318,US,United States,Miami,45.77.164.36
39.0438,-77.4874,US,United States,Ashburn,3.91.91.237
48.2082,16.3738,AT,Austria,Vienna,37.252.190.222
