latitude,longitude,Country Code,Country,City,IP Address
51.1878,6.8607,DE,Germany,Düsseldorf,84.54.23.48
39.0438,-77.4874,US,United States,Ashburn,54.196.32.74
25.8119,-80.2318,US,United States,Miami,45.77.164.36
39.0438,-77.4874,US,United States,Ashburn,54.91.222.127
-23.5335,-46.6359,BR,Brazil,São Paulo,177.54.147.193
39.0438,-77.4874,US,United States,Ashburn,52.0.54.100
50.7012,3.21501,FR,France,Wattrelos,162.19.85.200
39.018,-77.539,US,United States,Ashburn,129.213.156.73
