latitude,longitude,Country Code,Country,City,IP Address
48.1951,16.3483,AT,Austria,Vienna,89.58.16.139
39.0438,-77.4874,US,United States,Ashburn,44.197.172.154
53.3498,-6.26031,IE,Ireland,Dublin,34.244.236.193
1.43508,103.804,SG,Singapore,Singapore,72.46.87.167
39.0438,-77.4874,US,United States,Ashburn,3.91.91.237
25.8119,-80.2318,US,United States,Miami,45.77.164.36
