latitude,longitude,Country Code,Country,City,IP Address
25.8119,-80.2318,US,United States,Miami,45.77.164.36
48.2906,16.3441,AT,Austria,Klosterneuburg,185.119.118.68
39.018,-77.539,US,United States,Ashburn,150.136.127.40
53.3498,-6.26031,IE,Ireland,Dublin,34.244.236.193
37.3931,-121.962,US,United States,Santa Clara,64.227.110.67
