latitude,longitude,Country Code,Country,City,IP Address
49.4423,11.0191,DE,Germany,Nuremberg,152.53.22.28
32.8771,-80.013,US,United States,North Charleston,35.185.91.239
39.018,-77.539,US,United States,Ashburn,132.145.202.110
51.5123,-0.0909,GB,United Kingdom,London,67.209.52.73
51.4808,0.174675,GB,United Kingdom,Erith,57.128.188.88
-23.5335,-46.6359,BR,Brazil,São Paulo,177.54.147.193
51.1878,6.8607,DE,Germany,Düsseldorf,84.54.23.48
