latitude,longitude,Country Code,Country,City,IP Address
51.5123,-0.0909,GB,United Kingdom,London,67.209.52.73
49.4423,11.0191,DE,Germany,Nuremberg,152.53.22.28
39.018,-77.539,US,United States,Ashburn,150.136.127.40
48.2906,16.3441,AT,Austria,Klosterneuburg,185.119.118.68
43.6547,-79.3623,CA,Canada,Toronto,159.203.0.182
51.5074,-0.1196,GB,United Kingdom,London,198.244.253.243
50.4777,12.3649,DE,Germany,Falkenstein,49.12.150.240
43.6547,-79.3623,CA,Canada,Toronto,143.198.46.130
