latitude,longitude,Country Code,Country,City,IP Address
40.0992,-83.1141,US,United States,Dublin,3.132.241.37
48.1951,16.3483,AT,Austria,Vienna,89.58.16.139
37.3931,-121.962,US,United States,Santa Clara,64.227.110.67
51.5074,-0.1196,GB,United Kingdom,London,198.244.253.60
25.8119,-80.2318,US,United States,Miami,45.77.164.36
48.2906,16.3441,AT,Austria,Klosterneuburg,185.119.118.68
39.0438,-77.4874,US,United States,Ashburn,44.197.172.154
