latitude,longitude,Country Code,Country,City,IP Address
43.6547,-79.3623,CA,Canada,Toronto,143.198.46.130
51.5074,-0.1196,GB,United Kingdom,London,198.244.253.243
50.1109,8.68213,DE,Germany,Frankfurt am Main,52.58.243.225
39.0438,-77.4874,US,United States,Ashburn,3.91.91.237
50.4777,12.3649,DE,Germany,Falkenstein,49.12.150.240
37.5665,126.978,KR,South Korea,Seoul,52.79.171.57
48.5734,7.75211,FR,France,Strasbourg,91.134.22.62
51.5074,-0.1196,GB,United Kingdom,London,198.244.253.241
39.0438,-77.4874,US,United States,Ashburn,54.91.222.127
