latitude,longitude,Country Code,Country,City,IP Address
25.8119,-80.2318,US,United States,Miami,45.77.164.36
43.6547,-79.3623,CA,Canada,Toronto,159.203.0.182
32.8771,-80.013,US,United States,North Charleston,35.185.91.239
40.0992,-83.1141,US,United States,Dublin,3.132.241.37
43.6547,-79.3623,CA,Canada,Toronto,143.198.46.130
1.43508,103.804,SG,Singapore,Singapore,72.46.87.185
48.5734,7.75211,FR,France,Strasbourg,91.134.22.6
50.7012,3.21501,FR,France,Wattrelos,141.94.3.10
37.5665,126.978,KR,South Korea,Seoul,52.79.171.57
