latitude,longitude,Country Code,Country,City,IP Address
39.0438,-77.4874,US,United States,Ashburn,3.91.91.237
48.2906,16.3441,AT,Austria,Klosterneuburg,185.119.118.68
39.0438,-77.4874,US,United States,Ashburn,52.0.54.100
34.0544,-118.2441,US,United States,Los Angeles,84.54.23.48
52.352,4.9392,NL,The Netherlands,Amsterdam,84.32.186.15
49.4423,11.0191,DE,Germany,Nuremberg,152.53.22.28
37.5665,126.978,KR,South Korea,Seoul,52.79.171.57
