latitude,longitude,Country Code,Country,City,IP Address
51.5074,-0.1196,GB,United Kingdom,London,198.244.253.241
51.4808,0.174675,GB,United Kingdom,Erith,57.128.188.88
52.352,4.9392,NL,The Netherlands,Amsterdam,84.32.186.15
37.3931,-121.962,US,United States,Santa Clara,64.227.110.67
49.4423,11.0191,DE,Germany,Nuremberg,152.53.22.28
50.7012,3.21501,FR,France,Wattrelos,162.19.85.200
