latitude,longitude,Country Code,Country,City,IP Address
48.1951,16.3483,AT,Austria,Vienna,89.58.16.139
51.4808,0.174675,GB,United Kingdom,Erith,57.128.188.88
48.5734,7.75211,FR,France,Strasbourg,162.19.43.6
40.0992,-83.1141,US,United States,Dublin,3.132.241.37
48.2082,16.3738,AT,Austria,Vienna,37.252.190.222
37.3931,-121.962,US,United States,Santa Clara,64.227.110.67
