latitude,longitude,Country Code,Country,City,IP Address
50.3986,8.07958,DE,Germany,Limburg an der Lahn,141.95.124.216
48.1951,16.3483,AT,Austria,Vienna,89.58.16.139
51.5123,-0.0909,GB,United Kingdom,London,67.209.52.73
49.4521,11.0767,DE,Germany,Nuremberg,88.198.36.237
53.3498,-6.26031,IE,Ireland,Dublin,34.244.236.193
