latitude,longitude,Country Code,Country,City,IP Address
48.1951,16.3483,AT,Austria,Vienna,89.58.16.139
51.1878,6.8607,DE,Germany,Düsseldorf,84.54.23.48
50.7012,3.21501,FR,France,Wattrelos,162.19.85.200
39.0438,-77.4874,US,United States,Ashburn,3.91.91.237
-23.5335,-46.6359,BR,Brazil,São Paulo,177.54.147.193
48.5734,7.75211,FR,France,Strasbourg,91.134.22.62
37.5665,126.978,KR,South Korea,Seoul,52.79.171.57
