latitude,longitude,Country Code,Country,City,IP Address
43.6547,-79.3623,CA,Canada,Toronto,159.203.6.120
48.1951,16.3483,AT,Austria,Vienna,89.58.16.139
51.5074,-0.1196,GB,United Kingdom,London,198.244.253.241
50.3986,8.07958,DE,Germany,Limburg an der Lahn,141.95.124.216
50.7012,3.21501,FR,France,Wattrelos,141.94.3.10
50.7012,3.21501,FR,France,Wattrelos,162.19.85.200
40.0992,-83.1141,US,United States,Dublin,3.132.241.37
