latitude,longitude,Country Code,Country,City,IP Address
39.0438,-77.4874,US,United States,Ashburn,52.0.54.100
50.3986,8.07958,DE,Germany,Limburg an der Lahn,141.95.124.216
51.5074,-0.1196,GB,United Kingdom,London,198.244.253.60
50.7012,3.21501,FR,France,Wattrelos,162.19.37.247
52.352,4.9392,NL,The Netherlands,Amsterdam,84.32.186.15
49.4521,11.0767,DE,Germany,Nuremberg,88.198.36.237
