latitude,longitude,Country Code,Country,City,IP Address
49.4423,11.0191,DE,Germany,Nuremberg,152.53.22.28
51.5123,-0.0909,GB,United Kingdom,London,67.209.52.73
50.3878,8.07286,DE,Germany,Limburg an der Lahn,141.95.124.216
50.475,12.365,DE,Germany,Falkenstein,49.12.150.240
49.4521,11.0767,DE,Germany,Nuremberg,88.198.36.237
52.352,4.9392,NL,The Netherlands,Amsterdam,84.32.186.15
