latitude,longitude,Country Code,Country,City,IP Address
48.2906,16.3441,AT,Austria,Klosterneuburg,185.119.118.68
39.018,-77.539,US,United States,Ashburn,150.136.127.40
25.8119,-80.2318,US,United States,Miami,45.77.164.36
43.6547,-79.3623,CA,Canada,Toronto,159.203.6.120
51.5123,-0.0909,GB,United Kingdom,London,67.209.52.73
50.1109,8.68213,DE,Germany,Frankfurt am Main,52.58.243.225
52.352,4.9392,NL,The Netherlands,Amsterdam,84.32.186.15
39.0438,-77.4874,US,United States,Ashburn,52.0.54.100
38.9071,-77.0368,US,United States,Washington,34.86.160.44
