latitude,longitude,Country Code,Country,City,IP Address
50.3986,8.07958,DE,Germany,Limburg an der Lahn,141.95.124.216
39.0438,-77.4874,US,United States,Ashburn,3.91.91.237
48.1951,16.3483,AT,Austria,Vienna,89.58.16.139
39.0438,-77.4874,US,United States,Ashburn,54.91.222.127
50.7012,3.21501,FR,France,Wattrelos,162.19.37.247
52.352,4.9392,NL,The Netherlands,Amsterdam,84.32.186.15
