latitude,longitude,Country Code,Country,City,IP Address
51.4808,0.174675,GB,United Kingdom,Erith,57.128.188.88
48.1951,16.3483,AT,Austria,Vienna,89.58.16.139
51.5074,-0.1196,GB,United Kingdom,London,198.244.253.243
50.3986,8.07958,DE,Germany,Limburg an der Lahn,141.95.124.216
50.1109,8.68213,DE,Germany,Frankfurt am Main,52.58.243.225
37.3931,-121.962,US,United States,Santa Clara,64.227.110.67
25.8119,-80.2318,US,United States,Miami,45.77.164.36
39.0438,-77.4874,US,United States,Ashburn,3.239.38.16
