latitude,longitude,Country Code,Country,City,IP Address
39.0438,-77.4874,US,United States,Ashburn,44.197.172.154
51.5123,-0.0909,GB,United Kingdom,London,67.209.52.73
39.0438,-77.4874,US,United States,Ashburn,3.91.91.237
48.5734,7.75211,FR,France,Strasbourg,91.134.22.6
43.6547,-79.3623,CA,Canada,Toronto,159.203.6.120
1.43508,103.804,SG,Singapore,Singapore,72.46.87.167
49.4423,11.0191,DE,Germany,Nuremberg,152.53.22.28
43.6547,-79.3623,CA,Canada,Toronto,143.198.46.130
