latitude,longitude,Country Code,Country,City,IP Address
48.1951,16.3483,AT,Austria,Vienna,89.58.16.139
50.3878,8.07286,DE,Germany,Limburg an der Lahn,141.95.124.216
50.7012,3.21501,FR,France,Wattrelos,162.19.37.247
50.475,12.365,DE,Germany,Falkenstein,49.12.150.240
40.8229,-74.4592,US,United States,Cedar Knolls,45.79.149.203
39.0438,-77.4874,US,United States,Ashburn,54.91.222.127
51.5123,-0.0909,GB,United Kingdom,London,67.209.52.73
