latitude,longitude,Country Code,Country,City,IP Address
43.6547,-79.3623,CA,Canada,Toronto,143.198.46.130
50.7012,3.21501,FR,France,Wattrelos,141.94.3.10
50.7012,3.21501,FR,France,Wattrelos,162.19.85.200
50.3986,8.07958,DE,Germany,Limburg an der Lahn,141.95.124.216
51.5123,-0.0909,GB,United Kingdom,London,67.209.52.73
32.8771,-80.013,US,United States,North Charleston,35.185.91.239
51.5074,-0.1196,GB,United Kingdom,London,198.244.253.60
51.5074,-0.1196,GB,United Kingdom,London,198.244.253.243
