latitude,longitude,Country Code,Country,City,IP Address
51.5123,-0.0909,GB,United Kingdom,London,67.209.52.73
50.3878,8.07286,DE,Germany,Limburg an der Lahn,141.95.124.216
53.3498,-6.26031,IE,Ireland,Dublin,34.244.236.193
50.7012,3.21501,FR,France,Wattrelos,162.19.37.247
50.475,12.365,DE,Germany,Falkenstein,49.12.150.240
37.5665,126.978,KR,South Korea,Seoul,52.79.171.57
49.4423,11.0191,DE,Germany,Nuremberg,152.53.22.28
