latitude,longitude,Country Code,Country,City,IP Address
43.6547,-79.3623,CA,Canada,Toronto,159.203.0.182
40.0992,-83.1141,US,United States,Dublin,3.132.241.37
39.0438,-77.4874,US,United States,Ashburn,3.91.91.237
50.7012,3.21501,FR,France,Wattrelos,162.19.85.200
39.018,-77.539,US,United States,Ashburn,129.213.156.73
25.8119,-80.2318,US,United States,Miami,45.77.164.36
