latitude,longitude,Country Code,Country,City,IP Address
51.5123,-0.0909,GB,United Kingdom,London,67.209.52.73
48.2906,16.3441,AT,Austria,Klosterneuburg,185.119.118.68
49.4423,11.0191,DE,Germany,Nuremberg,152.53.22.28
50.475,12.365,DE,Germany,Falkenstein,49.12.150.240
48.2082,16.3738,AT,Austria,Vienna,37.252.190.222
